,Localtime,gps_epoch_second,Receivetime,Week,Seconds,DataCount,PitchRate,RollRate,YawRate,LateralAcc,LongitudinalAcc,VerticalAcc,CrcCheck
0,2024-02-03_09:16:03,2257997162,1706951763440479,2299,551597180,2,-9.74154776932e-05,0.0001416219618049,-0.0011902844432252,0.0034887373905843,-0.0089415761560434,0.0047679396398543,1465936950
1,2024-02-03_09:16:03,2257997172,1706951763441029,2299,551597190,1,-2.51111490567e-05,-3.77792038802e-05,-0.0005521077486752,0.0001530496061924,-0.0028773407930700002,0.0005465435365517,375590585
2,2024-02-03_09:16:03,2257997182,1706951763441944,2299,551597200,1,-1.09632150059e-05,-7.03148600154e-05,-0.0005318154761497,0.0042941226114043,-0.0053907556214399,-0.0014444326671393,4030117048
3,2024-02-03_09:16:03,2257997192,1706951763442323,2299,551597210,1,1.13251246747e-05,2.65705420312e-05,-0.0005643749094855,0.0090715047626581,-0.0043848240217936,0.0004557341983946,243596037
4,2024-02-03_09:16:03,2257997202,1706951763442969,2299,551597220,2,-0.0001465478134006,0.0003010699338776,-0.0011737618000114,0.0091719180889349,-0.0084754984407121,0.0067601805764474,1111040044
5,2024-02-03_09:16:03,2257997212,1706951763443615,2299,551597230,1,-7.54453300804e-05,9.51447039012e-05,-0.0005393644258442,0.0032801680954133,-0.0031442367325186,4.36509496133e-05,2641896044
6,2024-02-03_09:16:03,2257997222,1706951763444307,2299,551597240,1,-0.0001237253698111,7.55190719206e-05,-0.0005296097520661,0.0016416851987112,-0.005361861048838,-0.0044393048955972,2452172420
7,2024-02-03_09:16:03,2257997232,1706951763444819,2299,551597250,1,-1.23120870565e-05,2.13304003885e-05,-0.0005000108446771,0.0031265493246993,-0.0059286958700602,-0.0027252268907106,1549314145
8,2024-02-03_09:16:03,2257997242,1706951763445532,2299,551597260,2,-4.65158088429e-05,3.87247903413e-05,-0.000991815367948,0.0104500700651064,-0.0091455734812382,0.0057746571312862,221857080
9,2024-02-03_09:16:03,2257997252,1706951763446017,2299,551597270,1,-7.3162426587e-05,0.0001169957548702,-0.0005395463542777,0.0067574813692599,-0.0056321417377636,-0.0004831613068299,3063071900
10,2024-02-03_09:16:03,2257997262,1706951763446399,2299,551597280,1,-6.02288134602e-05,0.0001593005828405,-0.0005611056768902,0.0040954065760156,-0.00402081973542,-0.0009038450846883,1606270074
11,2024-02-03_09:16:03,2257997272,1706951763446831,2299,551597290,1,-9.03213706665e-05,7.05818524471e-05,-0.0005134746539184,-0.0013733794268110003,-0.0046042141349581,-0.0012953701968771,3303139048
12,2024-02-03_09:16:03,2257997282,1706951763447824,2299,551597300,2,-7.778884191799999e-05,-0.0001312921173707,-0.0008959276918287,0.0051263721498167,-0.0127794893867438,0.00083811440072,1533079921
13,2024-02-03_09:16:03,2257997292,1706951763448201,2299,551597310,1,-5.07038972501e-05,3.25676770263e-05,-0.0004866625446654,0.0057504451120045,-0.0058714945145459,0.0023473305800195,3944069856
14,2024-02-03_09:16:03,2257997302,1706951763448681,2299,551597320,1,-0.0001210244361321,0.0001172242786316,-0.0004947498845095,0.0049627837604404,-0.0055018499481774,-0.0002742304741091,3540509467
15,2024-02-03_09:16:03,2257997312,1706951763449073,2299,551597330,1,-0.0001000931319244,0.0001367565010611,-0.0004810460542832,0.0027663520039813,-0.0072228303609378,-0.0029764299309142,3801891163
16,2024-02-03_09:16:03,2257997322,1706951763449663,2299,551597340,2,-1.96517206579e-05,0.0001890167488715,-0.0009524103745948,-0.0025933833584335,-0.0104963653517401,-0.0039878710774761,192974148
17,2024-02-03_09:16:03,2257997332,1706951763450174,2299,551597350,1,4.1131186088e-06,4.8054757089e-06,-0.00043144663060300004,0.0029030012437072,-0.0069893784895351,-0.0013243101243507,717041524
18,2024-02-03_09:16:03,2257997342,1706951763450526,2299,551597360,1,9.71704716e-07,3.08943114167e-05,-0.0004403401475716,0.0050933126517046,-0.0047263797941046,0.0020523784773675,4146180621
19,2024-02-03_09:16:03,2257997352,1706951763451005,2299,551597370,1,-0.0001029297062814,0.0001089345530343,-0.0004726351093913,0.0043976523915084,-0.0057035065826069,0.0001810105872342,4254123302
20,2024-02-03_09:16:03,2257997362,1706951763452308,2299,551597380,2,-1.9450031492e-06,0.0002871187681815,-0.0009821637817597,0.0015652104767476,-0.0141292611100391,-0.0034750302155913,1468191840
21,2024-02-03_09:16:03,2257997372,1706951763452822,2299,551597390,1,2.62824927603e-05,9.948254887700001e-05,-0.000471782327949,-0.000991900024232,-0.0040596472369149,0.0016833843045943,334169849
22,2024-02-03_09:16:03,2257997382,1706951763453741,2299,551597400,1,-9.194831090100001e-05,5.84854745002e-05,-0.0004385722205505,0.0004582863383686,-0.0069526820113273,-0.0002216224997403,520775505
23,2024-02-03_09:16:03,2257997392,1706951763454137,2299,551597410,1,-5.41986309559e-05,1.5352826473e-06,-0.0004123942633618,0.0023501897606603,-0.0054646615487879,0.0016894179755353,912884511
24,2024-02-03_09:16:03,2257997402,1706951763454821,2299,551597420,2,-0.0002269656736223,0.0001196995290039,-0.0008966970671836,0.007824426721156,-0.0136881132023723,-0.0028792576319884,1973331397
25,2024-02-03_09:16:03,2257997412,1706951763455311,2299,551597430,1,4.52159919824e-05,0.0001582033686902,-0.0004858884458406,0.0039028537269223,-0.0068727934628394,-0.0029055959484113,358564301
26,2024-02-03_09:16:03,2257997422,1706951763455820,2299,551597440,1,-3.0871117064e-05,0.0001181883815009,-0.0004654314808305,-0.0010472548237988,-0.005828723848975001,0.0009754863903975,1357601223
27,2024-02-03_09:16:03,2257997432,1706951763456252,2299,551597450,1,-4.44249577408e-05,2.53796808409e-05,-0.0004371575273397,-0.002000155651705,-0.0080771704935745,0.0019813170438721,1161841529
28,2024-02-03_09:16:03,2257997442,1706951763456866,2299,551597460,2,-3.66747730838e-05,-4.63034827531e-05,-0.0008615150724049999,0.0050937043930206,-0.0130633110534125,0.0028960045138565,844766933
29,2024-02-03_09:16:03,2257997452,1706951763457213,2299,551597470,1,-9.14886165526e-05,1.7300034872e-06,-0.000433573358125,0.0026899773412441,-0.0043306905055123,-0.0001344661187809,3698929338
30,2024-02-03_09:16:03,2257997462,1706951763457623,2299,551597480,1,-8.90415563569e-05,6.5810274854e-06,-0.00041448260097699997,0.0031481915054005,-0.0076691366243524,-0.0048343688119561,237295685
31,2024-02-03_09:16:03,2257997472,1706951763458078,2299,551597490,1,1.37043850639e-05,-6.9072374622e-06,-0.0004115704041765,0.0025517306435909,-0.0098830486412076,-0.004972576418184,534300661
32,2024-02-03_09:16:03,2257997482,1706951763459289,2299,551597500,1,7.99747649668e-05,-1.48023918732e-05,-0.0004225189015951,0.0025427662682432,-0.0062787471225347,0.0028448258296669,1096717071
33,2024-02-03_09:16:03,2257997492,1706951763459725,2299,551597510,2,-9.95587439309e-05,7.19779832456e-05,-0.0008291038670143,0.0049762507103671,-0.0135350598761911,0.0038128784109002,3088654205
34,2024-02-03_09:16:03,2257997502,1706951763460450,2299,551597520,1,-9.08723127391e-05,2.41849075449e-05,-0.0004104023680228,-0.0010730307512243,-0.0066761858002021,-0.0032937599720572,925249158
35,2024-02-03_09:16:03,2257997512,1706951763461005,2299,551597530,1,8.8159659795e-06,-6.85833513706e-05,-0.0003739998652888,-0.0008213118921602,-0.0092263265513433,-0.0035586800670486,2165806466
36,2024-02-03_09:16:03,2257997522,1706951763461815,2299,551597540,2,0.0002085819635144,-0.0001370818768701,-0.0007557343920376,0.0079095093844242,-0.0114317419868647,0.0033538258737153,4270685955
37,2024-02-03_09:16:03,2257997532,1706951763462304,2299,551597550,1,-4.19682796392e-05,-1.94658852232e-05,-0.0003910236102853,0.0025133563494251,-0.0065751739116933,4.74091163708e-05,2817625749
38,2024-02-03_09:16:03,2257997542,1706951763462691,2299,551597560,1,-6.61269783527e-05,-8.932432088e-06,-0.0004008147366612,0.0032591679013128,-0.0081766597200586,-0.0035435242661033,2511206867
39,2024-02-03_09:16:03,2257997552,1706951763463178,2299,551597570,1,-1.38515775232e-05,1.10985427535e-05,-0.0004119486225107,0.0026561489361079,-0.0075909087047064,-0.0025885688100566,749654485
40,2024-02-03_09:16:03,2257997562,1706951763463804,2299,551597580,2,2.31954380066e-05,-7.5036293939e-05,-0.0007549372832004,4.54898436682e-05,-0.0127008444991219,-0.0001386967039657,42472331
41,2024-02-03_09:16:03,2257997572,1706951763464211,2299,551597590,1,2.1178039904e-06,-6.53716104369e-05,-0.0003542239748811,0.0017479979462418,-0.0082754428749654,-0.0003452319316713,3864056566
42,2024-02-03_09:16:03,2257997582,1706951763465159,2299,551597600,1,2.50932585013e-05,-2.03110537479e-05,-0.0003734700513508,0.0040083390019456,-0.0070301330289247,0.0013834064576287,4037551541
43,2024-02-03_09:16:03,2257997592,1706951763465700,2299,551597610,1,-2.8595500522000003e-05,5.43159567118e-05,-0.0003930397371775,0.0026755501263178,-0.0075697440120375,-0.0005873794859649,420815941
44,2024-02-03_09:16:03,2257997602,1706951763466498,2299,551597620,2,0.000101910061996,0.0001318952910211,-0.0007583946107905,0.0029803692672385,-0.0157832174490458,-0.0008786772443074,728285287
45,2024-02-03_09:16:03,2257997612,1706951763466907,2299,551597630,1,-1.98167983434e-05,8.26137010391e-05,-0.0003738683829259,0.0010430450976154,-0.0058509396955984,0.0021481154644339,2874095256
46,2024-02-03_09:16:03,2257997622,1706951763467568,2299,551597640,1,-9.01251913334e-05,0.0001129667890336,-0.00038326721568199994,0.0007287323339627,-0.0073349592419846,0.0006419968186504,4248918257
47,2024-02-03_09:16:03,2257997632,1706951763468215,2299,551597650,1,-3.99899945566e-05,7.63800357457e-05,-0.0003661233125353,0.0003574803410055,-0.0088128887805397,-0.0006592866324528,2387527913
48,2024-02-03_09:16:03,2257997642,1706951763468983,2299,551597660,2,9.9290832705e-06,5.10803886195e-05,-0.0007276538980548,0.0039073937212237,-0.0158943442207936,0.0041782099309346,4156136744
49,2024-02-03_09:16:03,2257997652,1706951763469445,2299,551597670,1,5.7372074555e-06,6.14297015412e-05,-0.000387728812923,0.0028048612919409,-0.0088903111597427,0.0015058292117501,3576879544
50,2024-02-03_09:16:03,2257997662,1706951763469803,2299,551597680,1,1.33347538182e-05,3.9852948349e-05,-0.0003709364927328,0.0018897529318353,-0.0078197735989436,0.0010097001893080001,1743626203
51,2024-02-03_09:16:03,2257997672,1706951763470308,2299,551597690,1,-4.53540747677e-05,-1.15253510788e-05,-0.0003442387568536,0.0017386516324167,-0.0052419951447519,0.0011495254839659,3816772104
52,2024-02-03_09:16:03,2257997682,1706951763471392,2299,551597700,2,-6.75477821634e-05,-5.52723886493e-05,-0.0006941207386986,0.0055401219614698,-0.0148171262613288,-0.003605650586391,203086085
53,2024-02-03_09:16:03,2257997692,1706951763471819,2299,551597710,1,8.44020088e-08,-1.73682268033e-05,-0.0003529966724729,0.0031955413996097,-0.0082348485211419,-0.0002574153551011,3981039253
54,2024-02-03_09:16:03,2257997702,1706951763472232,2299,551597720,1,3.46323782774e-05,-4.32226764435e-05,-0.0003384871071543,0.0025486214455894,-0.0084436350522574,0.0023897850193715,3571868109
55,2024-02-03_09:16:03,2257997712,1706951763472606,2299,551597730,1,-3.07339193333e-05,-5.01416828558e-05,-0.0003393215732947,0.0016167536505814,-0.0082956666711923,0.0023528560751114,2388611426
56,2024-02-03_09:16:03,2257997722,1706951763473162,2299,551597740,2,-2.17545960927e-05,-0.0001378429900653,-0.0006698030899492,0.0034433362420214,-0.0148460700727311,-0.0010385116432318,3312032426
57,2024-02-03_09:16:03,2257997732,1706951763473611,2299,551597750,1,1.16461303914e-05,-5.75255608013e-05,-0.000336429293725,0.0029234242299001,-0.0080650785306826,-0.0014516401925129,4251506363
58,2024-02-03_09:16:03,2257997742,1706951763474010,2299,551597760,1,5.4901033201e-06,-1.06912372971e-05,-0.0003595710348683,0.0011077751757233,-0.0073732019764627,0.0012396347583209,390434895
59,2024-02-03_09:16:03,2257997752,1706951763474465,2299,551597770,1,1.45872737897e-05,-2.23091067962e-05,-0.0003484686600391,-0.0005528435833249,-0.0089846908519214,0.0006482656507214,2739427223
60,2024-02-03_09:16:03,2257997762,1706951763475115,2299,551597780,2,-0.000113521738891,-0.0001119630201287,-0.0006471379850652,0.0034144761973628,-0.0148289425590586,-0.0013614962569933,3451309313
61,2024-02-03_09:16:03,2257997772,1706951763475814,2299,551597790,1,-2.52721167021e-05,-4.17469755534e-05,-0.0003199333567049,0.0022659751850719,-0.0089682705254133,-0.0033114691962758,4254603734
62,2024-02-03_09:16:03,2257997782,1706951763476995,2299,551597800,1,-2.01424338342e-05,2.20634573352e-05,-0.0003344650669269,0.0043093973692571,-0.0095685161593073,-0.0020745339710396,2957180990
63,2024-02-03_09:16:03,2257997792,1706951763477455,2299,551597810,1,8.14926392973e-05,9.197149994299998e-05,-0.0003578461048117,0.0025034724939286,-0.0091046400318335,0.0020788824523376,1158624539
64,2024-02-03_09:16:03,2257997802,1706951763478010,2299,551597820,2,3.29422039647e-05,0.0001251641763414,-0.000653866272984,0.0009403954429452,-0.0156481551595507,0.0027530935466513,391847434
65,2024-02-03_09:16:03,2257997812,1706951763478537,2299,551597830,1,-5.37287172119e-05,3.58671947642e-05,-0.0003183900555236,0.0021248663216762,-0.0073690740093267,-0.0014056739181212,3710687585
66,2024-02-03_09:16:03,2257997822,1706951763478907,2299,551597840,1,-4.5755790589e-05,5.394563617600001e-05,-0.0003300068377358,0.0025478323099660002,-0.0078168189242623,-0.0014148684523829999,866580395
67,2024-02-03_09:16:03,2257997832,1706951763479319,2299,551597850,1,-4.21747167545e-05,6.4408868249e-05,-0.0003223179086863,0.0038143109276507,-0.0098532861199119,-0.0018006804848307,2380685977
68,2024-02-03_09:16:03,2257997842,1706951763479967,2299,551597860,2,5.52831726727e-05,0.0001727093377245,-0.0006408028556619,0.0022125155656898,-0.0159175495578056,0.0014409269367155,1976278589
69,2024-02-03_09:16:03,2257997852,1706951763480893,2299,551597870,1,-7.45317306471e-05,1.8838859536e-06,-0.0002740919772546,0.0011381123796604,-0.0083191438489741,-4.6244109854999995e-05,1203240169
70,2024-02-03_09:16:03,2257997862,1706951763480904,2299,551597880,1,-4.83401389012e-05,7.2122311239e-06,-0.0002874913796551,0.0050542008115427,-0.0091213392293347,-0.0023922817560049,2866114600
71,2024-02-03_09:16:03,2257997872,1706951763481409,2299,551597890,1,7.8712993186e-06,7.50369260341e-05,-0.0003267285302097,0.0024973727229902,-0.0092440745263388,-0.0025142561368104,2896556235
72,2024-02-03_09:16:03,2257997882,1706951763482499,2299,551597900,2,0.0001190328501078,8.38558223042e-05,-0.0006157655026814,0.0004973358199031,-0.0172197978906951,-0.0004793397996142,204218689
73,2024-02-03_09:16:03,2257997892,1706951763482916,2299,551597910,1,8.0188329201e-06,6.1809544612e-06,-0.0002895801826094,0.0001084571888997,-0.0091594200957128,-0.0003306907551707,2992079029
74,2024-02-03_09:16:03,2257997902,1706951763483617,2299,551597920,1,1.71269867787e-05,-3.53582800898e-05,-0.0002827919413124,0.0004685866823156,-0.0099067049287981,0.0007202906764814,120166024
75,2024-02-03_09:16:03,2257997912,1706951763484272,2299,551597930,1,-1.5179277185000001e-05,-3.50749911867e-05,-0.0002770702306452,0.0047188122443380005,-0.0091827511419227,0.0027689603309138,786511018
76,2024-02-03_09:16:03,2257997922,1706951763485075,2299,551597940,2,-4.25052381733e-05,0.0001883089957502,-0.0006305766463863,0.0051825950506899,-0.0169270072236458,0.0033232421335745,3727873144
77,2024-02-03_09:16:03,2257997932,1706951763485559,2299,551597950,1,-9.0088836228e-06,5.93704768172e-05,-0.0002882462094943,-0.0006778713288613,-0.0086969521300915,-7.66464855079e-05,116843524
78,2024-02-03_09:16:03,2257997942,1706951763485990,2299,551597960,1,-1.50200004657e-05,1.9298845487e-06,-0.0002734953210589,0.0001490795947261,-0.0091999899123071,0.0029693049670104,579524936
79,2024-02-03_09:16:03,2257997952,1706951763486478,2299,551597970,1,-6.671646650100001e-05,-9.8627671434e-06,-0.0002745819478425,0.0001480792597674,-0.0090700683397718,0.0032725171817831,2299586608
80,2024-02-03_09:16:03,2257997962,1706951763487117,2299,551597980,2,-0.0002081959263656,-7.0433175381e-06,-0.0005202979559457,0.0079644014103491,-0.0194956856371468,-0.0019740316851011,2721138946
81,2024-02-03_09:16:03,2257997972,1706951763487609,2299,551597990,1,-4.84845974627e-05,6.28583837093e-05,-0.0002815060240194,0.0020064166089951,-0.0090681983762233,0.0006942974469663,1003488119
82,2024-02-03_09:16:03,2257997982,1706951763488664,2299,551598000,1,-3.21680334255e-05,4.40486345218e-05,-0.0002733874917853,-0.0005208218842443,-0.010676252651992998,0.0005343941413276,519486895
83,2024-02-03_09:16:03,2257997992,1706951763489239,2299,551598010,1,1.68053273315e-05,2.38201474641e-05,-0.0002706700297239,0.0006719099169444,-0.0098224811008313,-0.0004203105540448,2318493488
84,2024-02-03_09:16:03,2257998002,1706951763489628,2299,551598020,2,-0.0001404851475315,3.27085709227e-05,-0.0005439546317132,0.00046090557829999996,-0.017903951460676998,0.0010248278540836,3321554399
85,2024-02-03_09:16:03,2257998012,1706951763490121,2299,551598030,1,-0.0001297514153211,7.7973335386e-06,-0.0002515632156789,0.0021098327054862,-0.0097922954999453,-0.0001956901033026,2403267456
86,2024-02-03_09:16:03,2257998022,1706951763490604,2299,551598040,1,-7.28288302284e-05,3.6289265064e-05,-0.0002577168053627,0.0010270021668099,-0.0106656742739336,-0.0023190087814764,3107764386
87,2024-02-03_09:16:03,2257998032,1706951763490986,2299,551598050,1,-3.49878858431e-05,2.1180776096e-05,-0.0002543117382218,0.0003848957515573,-0.0094300053848339,-0.0025276424639394,2458737053
88,2024-02-03_09:16:03,2257998042,1706951763492221,2299,551598060,2,-7.08790405299e-05,8.55637908266e-05,-0.0005234104828562,0.0030782792374726,-0.0189871213361755,-0.0027553360015127,2976825908
89,2024-02-03_09:16:03,2257998052,1706951763492815,2299,551598070,1,-4.31607924359e-05,3.338870289e-05,-0.0002537862034403,-0.0010614920131639,-0.0107349967037068,-0.0022323866211095,1675866821
90,2024-02-03_09:16:03,2257998062,1706951763493245,2299,551598080,1,-1.67787131928e-05,-2.25538036251e-05,-0.0002319529124825,0.0011494116130715,-0.0117604518266315,-0.0013754113679739,3617447300
91,2024-02-03_09:16:03,2257998072,1706951763493692,2299,551598090,1,4.05438238357e-05,3.3265077259e-06,-0.0002581136624482,0.0034207902365107,-0.010284409606712,-0.0001572953795942,2164932809
92,2024-02-03_09:16:03,2257998082,1706951763494699,2299,551598100,2,7.4577392475e-06,6.79921294167e-05,-0.0005609725025598,0.0030298078597346,-0.0159964998103556,-0.0006141396381795,3112996081
93,2024-02-03_09:16:03,2257998092,1706951763495159,2299,551598110,1,1.49052790952e-05,2.80857675563e-05,-0.000272420248059,0.0011826186246827,-0.0106917814740368,-0.0035692585470625,3611363088
94,2024-02-03_09:16:03,2257998102,1706951763495709,2299,551598120,1,7.73078973956e-05,-1.31450515502e-05,-0.0002576722726279,-0.0011155191296289,-0.0115143258958943,-0.0026024286151932,2994982513
95,2024-02-03_09:16:03,2257998112,1706951763496014,2299,551598130,1,9.41738418017e-05,-8.20111053281e-05,-0.0002364165461725,-0.0007192969957196,-0.0081304839148902,0.0035445683169177,3853708677
96,2024-02-03_09:16:03,2257998122,1706951763496613,2299,551598140,2,-5.85828233294e-05,-4.6666962922e-05,-0.0005194636975212,0.0077895565996623,-0.0163004791769542,0.0050039198760218,4001535533
97,2024-02-03_09:16:03,2257998132,1706951763497029,2299,551598150,1,-5.50142005959e-05,7.89360115396e-05,-0.0002907804588404,0.0022683156834085,-0.0109375825161803,-0.0033536624801140005,907647228
98,2024-02-03_09:16:03,2257998142,1706951763497430,2299,551598160,1,9.14109666396e-05,6.18156400231e-05,-0.0002850387201236,-0.0010734329897502,-0.0126969265137312,-0.0022650447773503,352187792
99,2024-02-03_09:16:03,2257998152,1706951763497843,2299,551598170,1,0.0001784094051436,-1.01354644424e-05,-0.0002598442170863,-0.0024057439538173,-0.0094853135788855,0.0036123848447918,2721314694
100,2024-02-03_09:16:03,2257998162,1706951763498441,2299,551598180,2,-0.0001334434785548,-0.0001052652330542,-0.0005090095962936,0.0020185195788104,-0.0146662039681684,0.007325798801758001,599087711
101,2024-02-03_09:16:03,2257998172,1706951763498807,2299,551598190,1,-0.0001467323098617,1.004520301e-06,-0.0002825001383839,0.0030799648028794,-0.0115141413198141,-0.0047875211877584,582633328
102,2024-02-03_09:16:03,2257998182,1706951763499917,2299,551598200,1,1.49711099257e-05,2.28384643195e-05,-0.0002757073340019,0.0019257167040797,-0.0112792177711744,-0.0038751162753538,2641115619
103,2024-02-03_09:16:03,2257998192,1706951763500562,2299,551598210,1,0.0001394413631304,1.16911643751e-05,-0.0002714108965324,-0.0003847967243515,-0.0103074621308524,0.0010251957584432,3392030713
104,2024-02-03_09:16:03,2257998202,1706951763501314,2299,551598220,2,0.0001104277340348,-2.63013171587e-05,-0.0005374714615999,0.0013441661501813,-0.016086895237735,0.0020418939699401,2604413457
105,2024-02-03_09:16:03,2257998212,1706951763503238,2299,551598230,1,-8.82676795152e-05,2.08380281375e-05,-0.0002715784715793,0.0038584538127198,-0.0093066265167794,-0.0021507116932555,1937360738
106,2024-02-03_09:16:03,2257998222,1706951763503816,2299,551598240,1,-1.92538410313e-05,3.59618060897e-05,-0.0002684782556915,0.0014170106618464,-0.0097998972749204,-0.0026989651420129,4101384229
107,2024-02-03_09:16:03,2257998232,1706951763504493,2299,551598250,1,1.86826245579e-05,3.7734593089e-05,-0.0002688330631702,-0.0006238303326268,-0.0105456573972178,-0.0023137537923523,2206225007
108,2024-02-03_09:16:03,2257998242,1706951763505204,2299,551598260,2,0.0002089404203973,2.12868531079e-05,-0.0005406319670447,0.0023725254079027,-0.0168348788799141,0.0025069752804753,1182393769
109,2024-02-03_09:16:03,2257998252,1706951763505695,2299,551598270,1,-5.9493506181e-05,-5.359215664e-07,-0.0002555464585971,0.0028812156077585,-0.0098812853031216,0.0012060851114018,715314862
110,2024-02-03_09:16:03,2257998262,1706951763506272,2299,551598280,1,-1.66214723517e-05,-1.21049629325e-05,-0.0002418175271751,0.0024836295874971,-0.0097464167231081,0.0001730796219858,3315991639
111,2024-02-03_09:16:03,2257998272,1706951763506813,2299,551598290,1,-4.7763954383e-05,-9.2220915579e-06,-0.0002421880167744,0.0026435421843792,-0.0092736583921514,-0.001183001808362,1367802690
112,2024-02-03_09:16:03,2257998282,1706951763508457,2299,551598300,2,8.7759410177e-06,-1.8949579076e-05,-0.0004803024166702,0.0024263400965074,-0.0183490915320794,-0.0011044400132441,4092441118
113,2024-02-03_09:16:03,2257998292,1706951763508901,2299,551598310,1,-2.80014176368e-05,-2.1075752978e-06,-0.0002348136684449,0.0018479280144141,-0.0098617470900004,0.0014487157042214,4219746043
114,2024-02-03_09:16:03,2257998302,1706951763509503,2299,551598320,1,-2.66569632874e-05,2.31190052259e-05,-0.0002420188648806,0.0007769953128907,-0.0115781177965679,-0.0006359566568678,1150008596
115,2024-02-03_09:16:03,2257998312,1706951763509961,2299,551598330,1,-1.95981021527e-05,2.498145056e-07,-0.0002225555332306,0.0006144233116332,-0.0105803317936266,-0.00035938120361300003,581523677
116,2024-02-03_09:16:03,2257998322,1706951763510732,2299,551598340,2,-1.94044531647e-05,3.08034566228e-05,-0.0004322898859168,0.0036195128508856,-0.0180268734719976,0.0039154083904207,1699487294
117,2024-02-03_09:16:03,2257998332,1706951763511287,2299,551598350,1,-7.55788442827e-05,4.80300164611e-05,-0.0002122095025071,0.0012938437317252,-0.0093335849432458,0.0007393290761323,2803683544
118,2024-02-03_09:16:03,2257998342,1706951763511815,2299,551598360,1,-2.88224625795e-05,7.27342816197e-05,-0.0002194306684639,0.0018120074673798,-0.0107299783677546,-7.75429706291e-05,4032079068
119,2024-02-03_09:16:03,2257998352,1706951763512319,2299,551598370,1,-1.62095752544e-05,0.0001051449897675,-0.0002296266914114,0.0010093886029768,-0.0097296981407367,8.23036847548e-05,687420693
120,2024-02-03_09:16:03,2257998362,1706951763513037,2299,551598380,2,-0.0001365152088291,0.0001381873528661,-0.0004127024407646,0.0006686317765417,-0.0183773686330499,-0.0007249057029738,4223351370
121,2024-02-03_09:16:03,2257998372,1706951763513738,2299,551598390,1,-9.01518596022e-05,6.84776099994e-05,-0.0002163629163218,0.0017506247728949,-0.0108507003608094,-0.0020341772039576,3708838384
122,2024-02-03_09:16:03,2257998382,1706951763514947,2299,551598400,1,-4.93574790215e-05,7.03390485746e-05,-0.0002189202634027,0.0009168294159863,-0.0107962115780316,-0.0018698602506803,1975164553
123,2024-02-03_09:16:03,2257998392,1706951763515691,2299,551598410,1,1.56613684994e-05,7.11799639864e-05,-0.000214635248191,0.0009955423592547,-0.0103586061200408,0.0001955645853971,1961519658
124,2024-02-03_09:16:03,2257998402,1706951763516697,2299,551598420,2,5.88641970854e-05,0.000131620001673,-0.0004344820518961,-0.0002754612039835,-0.0179266204997251,-0.0005298484027131,3534957631
125,2024-02-03_09:16:03,2257998412,1706951763517259,2299,551598430,1,-3.49894628156e-05,3.83464702891e-05,-0.0002098234923232,0.0015346463510555,-0.0098178544617318,-0.0016135286310818,2543257192
126,2024-02-03_09:16:03,2257998422,1706951763517820,2299,551598440,1,-1.93792281647e-05,2.35932511527e-05,-0.0002042700749286,0.0024709160487596,-0.0089562250588092,0.0012567534452423,3895728740
127,2024-02-03_09:16:03,2257998432,1706951763518299,2299,551598450,1,-5.38236137889e-05,4.11650436311e-05,-0.0002092327332784,0.001233586055518,-0.0107827021675857,-5.93696391642e-05,3389050286
128,2024-02-03_09:16:03,2257998442,1706951763519119,2299,551598460,2,2.82557879706e-05,9.22553617148e-05,-0.0004187115992108,0.0016805112876184,-0.0218072846695357,-0.0007608617662044,3094405363
129,2024-02-03_09:16:03,2257998452,1706951763519870,2299,551598470,1,-3.67535010283e-05,2.32472445803e-05,-0.0001930865856888,0.0009076999732755,-0.009477575942179,0.000717587595403,3691163784
130,2024-02-03_09:16:03,2257998462,1706951763520079,2299,551598480,1,-5.4747483209000003e-05,1.19359667634e-05,-0.0001833086775088,0.0015235109278486,-0.0101858664236638,0.0007003089185405,3403005395
131,2024-02-03_09:16:03,2257998472,1706951763520576,2299,551598490,1,-2.70276725208e-05,4.83374200027e-05,-0.0001948485712748,0.0027770286612328,-0.0103304761181282,0.0002854566177142,4263609005
132,2024-02-03_09:16:03,2257998482,1706951763521702,2299,551598500,2,6.10130771663e-05,0.0001485192967972,-0.0004063565681633,0.0009337389253947,-0.0216333857633643,0.0002111048058733,284571985
133,2024-02-03_09:16:03,2257998492,1706951763522248,2299,551598510,1,2.21090358502e-05,3.92499007249e-05,-0.0001859836852,0.0015098515584441,-0.0086714062598888,0.0025120264693129996,393591369
134,2024-02-03_09:16:03,2257998502,1706951763522641,2299,551598520,1,-4.0579231993e-05,3.88366614531e-05,-0.0001904041117513,0.0010608484964721,-0.0097631839645093,0.0009358118016555,2018269505
135,2024-02-03_09:16:03,2257998512,1706951763523089,2299,551598530,1,-0.0001217067505605,3.01978595952e-05,-0.0001860068629758,0.0005648521020261,-0.0112772424831558,-0.0012299682698194,2315945069
136,2024-02-03_09:16:03,2257998522,1706951763524277,2299,551598540,2,-9.229984552999999e-06,-8.4594903787e-06,-0.0003589542604263,0.0035234545950916,-0.0240284342944927,0.0008474228888898,979121545
137,2024-02-03_09:16:03,2257998532,1706951763524820,2299,551598550,1,-3.55147044986e-05,1.2469693034e-06,-0.0001911115852025,0.000564432289645,-0.0104040277175644,0.0023877009421478,2599758268
138,2024-02-03_09:16:03,2257998542,1706951763525256,2299,551598560,1,-4.49875364111e-05,-2.12315249705e-05,-0.0001836043055273,0.0007141369890854,-0.0088330310721763,0.0010250872438581,3574887466
139,2024-02-03_09:16:03,2257998552,1706951763525683,2299,551598570,1,-9.39332524979e-05,-4.62788490297e-05,-0.0001733941995291,0.0003501493674893,-0.0099369317216662,-0.0021937318333653,700779194
140,2024-02-03_09:16:03,2257998562,1706951763526582,2299,551598580,1,-5.9492114057e-05,-6.36061644077e-05,-0.0001624771785346,9.94995306792e-05,-0.011817146275625,-0.0042073092514568,954970177
141,2024-02-03_09:16:03,2257998572,1706951763527041,2299,551598590,2,9.46918877557e-05,-1.63744794379e-05,-0.0003626648774149,0.0023517759296814,-0.0220410635394311,-8.94268731706e-05,3215523290
142,2024-02-03_09:16:03,2257998582,1706951763527807,2299,551598600,1,-3.389035513699999e-05,1.96587671409e-05,-0.0001910140978095,-7.57471450213e-05,-0.0091833933362102,0.0017742831819308,749650378
143,2024-02-03_09:16:03,2257998592,1706951763528239,2299,551598610,1,-9.55111385271e-05,-9.6150654451e-06,-0.0001710026157293,-0.0010070889296488,-0.0108094056373257,-0.0008991547990098,3320606452
144,2024-02-03_09:16:03,2257998602,1706951763528991,2299,551598620,2,-9.44573234785e-05,-7.78303760344e-05,-0.000325148766469,0.0012090597397881,-0.0204076472398545,-0.0041118586119866,2549742107
145,2024-02-03_09:16:03,2257998612,1706951763529215,2299,551598630,1,-3.11994861006e-05,3.05888807683e-05,-0.0001890683936329,0.002295178660748,-0.0112001218142051,-0.001656882004185,2049014494
146,2024-02-03_09:16:03,2257998622,1706951763529566,2299,551598640,1,1.12348089149e-05,7.52520778829e-05,-0.0001958499025564,0.0009785391441373,-0.0122235070772287,-0.0006583459394879,2004877190
147,2024-02-03_09:16:03,2257998632,1706951763529996,2299,551598650,1,-3.8471157129e-06,5.82574256143e-05,-0.0001881384571815,-0.0015344739160168,-0.0101430948450052,0.0021899747143193,2743207001
148,2024-02-03_09:16:03,2257998642,1706951763530650,2299,551598660,2,-0.000127575781108,-8.27627450315e-05,-0.0002941882324724,0.0010868629618116,-0.0207656343375347,-0.0010779806544089,2183249495
149,2024-02-03_09:16:03,2257998652,1706951763531125,2299,551598670,1,-9.0661667638e-05,-1.33176837392e-05,-0.0001673919263826,0.0036402367607424,-0.0112108517672623,-0.0034076895542688,1289699978
150,2024-02-03_09:16:03,2257998662,1706951763531954,2299,551598680,1,-1.62762896399e-05,4.5761242886000007e-05,-0.0001851569614986,0.0016441891603976,-0.0114766629346783,-0.0029225054853931,2570478966
151,2024-02-03_09:16:03,2257998672,1706951763532657,2299,551598690,1,3.25291294771e-05,2.68975583269e-05,-0.0001612209714452,-0.0002661706870354,-0.0109646825198759,-0.0006487046178627,2799829242
152,2024-02-03_09:16:03,2257998682,1706951763533702,2299,551598700,2,2.6428822939e-06,-3.27049060601e-05,-0.0003054957247912,-0.0026584891367554,-0.0191947289669516,-0.0015995647746637,570220315
153,2024-02-03_09:16:03,2257998692,1706951763534275,2299,551598710,1,-5.91532834869e-05,-5.43670964396e-05,-0.0001427102950633,0.0012691793868580001,-0.0111057803670204,-0.0037235388323308,299851134
154,2024-02-03_09:16:03,2257998702,1706951763534712,2299,551598720,1,-1.31963647466e-05,-1.3542233297e-06,-0.000162274309025,0.0024474910461944,-0.0104197759957348,-0.0020940735235524,2994837415
155,2024-02-03_09:16:03,2257998712,1706951763535165,2299,551598730,1,7.2184268293e-05,3.46254455958e-05,-0.0001766835419839,-1.83830513642e-05,-0.011810870370688,-0.0012562060300612,450692828
156,2024-02-03_09:16:03,2257998722,1706951763535810,2299,551598740,2,0.000161184961776,7.5058722986e-06,-0.0003378793608606,-0.0004514829185045,-0.0196447140853131,0.0027190347288399,1834591550
157,2024-02-03_09:16:03,2257998732,1706951763536351,2299,551598750,1,-3.30671161538e-05,-4.9197332042e-06,-0.0001662210491579,-0.0010310234643506,-0.0107359564331834,0.0009618323554161,2764303256
158,2024-02-03_09:16:03,2257998742,1706951763536824,2299,551598760,1,-6.68243179519e-05,-2.30715733157e-05,-0.0001574938719036,0.0010657299131452,-0.0105038731930591,-0.0003499694032695,1536142850
159,2024-02-03_09:16:03,2257998752,1706951763537217,2299,551598770,1,-3.76668563765e-05,-4.4730309171e-06,-0.0001649497306228,0.0026907162200747,-0.0110257277733662,-0.0002892419191844,1965625513
160,2024-02-03_09:16:03,2257998762,1706951763537842,2299,551598780,2,2.54680108444e-05,5.683888906000001e-06,-0.0003230375905796,0.0006546407513864,-0.0229083954900541,0.0006724828287438,2692048642
161,2024-02-03_09:16:03,2257998772,1706951763538238,2299,551598790,1,1.7080748183e-06,3.6689690108e-06,-0.0001643662619742,0.0013165083948144,-0.010522664565659,0.0020530394794305,519078816
162,2024-02-03_09:16:03,2257998782,1706951763539121,2299,551598800,1,-1.4118706900999999e-05,1.65287429626e-05,-0.00016739099469199997,0.001330145726747,-0.0108451047960657,0.0005972337851407,4044866918
163,2024-02-03_09:16:03,2257998792,1706951763539866,2299,551598810,1,-2.79635276062e-05,-6.3184737707e-06,-0.0001488420598248,0.0009092817991876,-0.010735605061255,-0.0003206742114495,2673779759
164,2024-02-03_09:16:03,2257998802,1706951763540722,2299,551598820,2,9.37482972218e-05,2.05422294969e-05,-0.0002943709407312,0.0024709036159925,-0.0219103527019977,0.0005803135003268,1681176248
165,2024-02-03_09:16:03,2257998812,1706951763541148,2299,551598830,1,3.47843749963e-05,1.53267905973e-05,-0.0001471430128949,0.000463493484113,-0.0109261664017145,0.0011283478034995,28483894
166,2024-02-03_09:16:03,2257998822,1706951763541597,2299,551598840,1,2.11865955986e-05,2.5190270974e-06,-0.0001451994294993,0.0006121249314598,-0.0105752166994733,0.0023852463345341,2446771298
167,2024-02-03_09:16:03,2257998832,1706951763542083,2299,551598850,1,-5.2096128554e-06,1.38272559921e-05,-0.0001454388701261,0.001641105625365,-0.0105344020188695,0.0017526368668814,191375466
168,2024-02-03_09:16:03,2257998842,1706951763542701,2299,551598860,2,-5.64117545081e-05,4.89139295644e-05,-0.0002750776048365,0.0037697440898068,-0.0212710461872916,0.0031372714727131,1625608716
169,2024-02-03_09:16:03,2257998852,1706951763543255,2299,551598870,1,3.24926871559e-05,1.31776103654e-05,-0.0001204781345763,0.0009322158570605,-0.0109195416565138,0.0017139095976392,1559536021
170,2024-02-03_09:16:03,2257998862,1706951763543665,2299,551598880,1,-1.36232479773e-05,-2.6371565632e-06,-0.000108217516892,0.0020196264753354,-0.0095686009406401,0.0022189321132398,240255158
171,2024-02-03_09:16:03,2257998872,1706951763544131,2299,551598890,1,-4.86708684999e-05,1.2088586932e-06,-0.0001056732854405,0.0025574589999979,-0.0105142400249905,0.0031498855334628,911784360
172,2024-02-03_09:16:03,2257998882,1706951763545442,2299,551598900,2,-0.00011861646842399999,8.22048555326e-05,-0.0002165544537013,0.0021797656676461,-0.0219943369011601,0.0001988136555648,2453918097
173,2024-02-03_09:16:03,2257998892,1706951763545928,2299,551598910,1,-5.88418733387e-05,2.52026805113e-05,-0.0001007524589105,-0.000144258254191,-0.0110097297347556,-0.0003077400514098,2421978839
174,2024-02-03_09:16:03,2257998902,1706951763546464,2299,551598920,1,-5.07579128826e-05,6.25267442e-07,-9.41971577137e-05,-0.0004403543634537,-0.0101143471837225,0.0008140863104572,1266635973
175,2024-02-03_09:16:03,2257998912,1706951763547045,2299,551598930,1,-7.43836357665e-05,-1.48673448423e-05,-8.45827564526e-05,0.0010599197106865,-0.0099284146168916,0.0001251511965229,2766311980
176,2024-02-03_09:16:03,2257998922,1706951763548571,2299,551598940,2,-0.0001267161760884,1.68433390855e-05,-0.000183205964577,0.0030166417975730003,-0.0228851288022234,-0.0029750282008849,192456248
177,2024-02-03_09:16:03,2257998932,1706951763549042,2299,551598950,1,-2.02250271644e-05,1.91778663184e-05,-0.0001000444900106,-0.0003221427206402,-0.0106364578540133,-0.0005998538389389,2071608513
178,2024-02-03_09:16:03,2257998942,1706951763549562,2299,551598960,1,-4.45855271791e-05,-1.51148363862e-05,-9.57667939176e-05,-0.0006372258071439,-0.0090872263691282,0.0011565338798812,3917695903
179,2024-02-03_09:16:03,2257998952,1706951763550120,2299,551598970,1,-0.0001035107733808,-6.49802585216e-05,-9.16048760899e-05,-0.0017297921990153,-0.0087862449709658,0.0005531573802954,3998930013
180,2024-02-03_09:16:03,2257998962,1706951763550818,2299,551598980,2,-0.0003121525101009,-0.000321767438639,-0.0001886884120424,-0.0034249358887495,-0.0185574397545152,-0.0028752971344937,725113485
181,2024-02-03_09:16:03,2257998972,1706951763551474,2299,551598990,1,-0.0001084561397114,-0.0002049689899365,-0.0001122869544346,0.0007014749992508,-0.0126447769518017,-0.0001222296002862,1377233250
182,2024-02-03_09:16:03,2257998982,1706951763552652,2299,551599000,1,-6.14610081531e-05,-0.0001930766257261,-0.0001159914010148,0.0010546933285801,-0.0132673568427258,0.0009625318896771,1623907017
183,2024-02-03_09:16:03,2257998992,1706951763553219,2299,551599010,1,-0.0001069558382181,-0.0001581770845459,-0.0001106226598179,0.0024923420319415,-0.0140667162501353,-0.0003639154125137,1763791671
184,2024-02-03_09:16:03,2257999002,1706951763553990,2299,551599020,2,-0.0002856164333262,-0.0002074089483706,-0.0001569899969567,0.0054849647452829,-0.0307325775239741,-0.0035643636344086,1631827748
185,2024-02-03_09:16:03,2257999012,1706951763554440,2299,551599030,1,-7.88808825763e-05,-5.98785235616e-05,-4.07494579528e-05,-0.0001998172497613,-0.0134736580367448,-0.0015130590062942,359345310
186,2024-02-03_09:16:03,2257999022,1706951763555028,2299,551599040,1,-4.6424211155e-05,7.6315565804e-06,-5.47357164309e-05,-0.0016961920366259,-0.0097888315132654,-0.0002541090498327,3441885645
187,2024-02-03_09:16:03,2257999032,1706951763555666,2299,551599050,1,-8.74149583961e-05,7.178380498299999e-05,-7.78840829755e-05,-0.0033271048714797,-0.0083557771510533,-0.0008924673150997,4072747894
188,2024-02-03_09:16:03,2257999042,1706951763556829,2299,551599060,2,-0.0001113166729428,0.000315466962549,-0.0002190416716082,-0.0007905105990049999,-0.0238756865030988,-0.0068098941436005,909441431
189,2024-02-03_09:16:03,2257999052,1706951763557445,2299,551599070,1,7.00351436814e-05,0.0002829330204707,-0.0001711567880837,0.0008072490721769,-0.0125463073704577,-0.0008673074113173,4247107020
190,2024-02-03_09:16:03,2257999062,1706951763557873,2299,551599080,1,8.08336650507e-05,0.0002580449434026,-0.0001559998444625,-0.0007579959961443,-0.0103463134061962,0.0004361674761429,115067288
191,2024-02-03_09:16:03,2257999072,1706951763558436,2299,551599090,1,-1.59003847504e-05,0.0001822177975625,-0.0001172063068597,-0.0005096614956602,-0.010432680569243,-0.0010813430858003,2389834665
192,2024-02-03_09:16:03,2257999082,1706951763559690,2299,551599100,2,-7.84862552438e-05,0.0002512437541268,-0.00022084090651400002,0.0005507856493075,-0.0202899016113041,-0.0018605032697354,1962628338
193,2024-02-03_09:16:03,2257999092,1706951763560098,2299,551599110,1,-4.56991188208e-05,0.0001053362510921,-0.0001139211448423,0.0039614249130195,-0.0111114146146653,-0.0013906915322895,2751493992
194,2024-02-03_09:16:03,2257999102,1706951763560565,2299,551599120,1,1.02006374762e-05,0.0001628887928233,-0.0001479646806468,0.0046202405707684,-0.0124894689239796,-0.0014769079552267,3133960908
195,2024-02-03_09:16:03,2257999112,1706951763561116,2299,551599130,1,5.86816950493e-05,0.0001905660744774,-0.0001741123659728,0.0010974834968514,-0.0112403272917357,0.0020769554705671,3289411820
196,2024-02-03_09:16:03,2257999122,1706951763561814,2299,551599140,2,-1.45489253654e-05,0.0002055956730181,-0.0003074013598622,-0.00202222146852,-0.0215964659812913,0.0027201020393687,3607996886
197,2024-02-03_09:16:03,2257999132,1706951763562507,2299,551599150,1,-3.41442391066e-05,-2.6709442998e-06,-0.0001245338224373,0.0008255800531919,-0.0094241118923625,-0.001857407936992,3428100718
198,2024-02-03_09:16:03,2257999142,1706951763563171,2299,551599160,1,-0.0001116050403162,-1.6247098552e-06,-0.0001274601748883,0.0035467364177305,-0.0105107294651341,-0.0011684854279514,1960578145
199,2024-02-03_09:16:03,2257999152,1706951763563993,2299,551599170,1,-5.9559975443000004e-05,4.29606369793e-05,-0.0001459830178421,0.0044537856634126,-0.0139057939165076,-0.0009546481940371,2435705105
200,2024-02-03_09:16:03,2257999162,1706951763565080,2299,551599180,2,5.18254119785e-05,6.7535155409e-05,-0.000312687905909,0.0021202355974228,-0.0276310985105658,0.0047607712056556,649108596
201,2024-02-03_09:16:03,2257999172,1706951763565567,2299,551599190,1,-7.51049291562e-05,-1.42652097037e-05,-0.0001659911752388,-0.0021307206233931,-0.0127553584513579,0.002145653495849,913021736
202,2024-02-03_09:16:03,2257999182,1706951763566527,2299,551599200,1,-0.0001047838701362,-7.22008374806e-05,-0.0001678545346076,-0.0017861097310457,-0.0138071801541235,-0.0014491794062942,3944487132
203,2024-02-03_09:16:03,2257999192,1706951763567029,2299,551599210,1,-4.84850471402e-05,-0.0001144992336904,-0.0001765183606475,2.52107918018e-05,-0.0134134819553218,-0.0021217956606126,3971694
204,2024-02-03_09:16:03,2257999202,1706951763567804,2299,551599220,2,6.39722558161e-05,-0.0002139281568856,-0.0004044490263488,0.0035869677721754,-0.0239590238466681,0.0007687253398553,3360654470
205,2024-02-03_09:16:03,2257999212,1706951763568475,2299,551599230,1,8.6107842271e-06,-0.0001369351798223,-0.0001766681321635,0.0027457773980234,-0.0092189985853619,0.0020622926251551,400053894
206,2024-02-03_09:16:03,2257999222,1706951763568994,2299,551599240,1,-3.9463305160999997e-05,-0.0001778145425306,-0.000146006355257,0.0009112967925301,-0.0115728652959108,-0.0015565347364807,2804791540
207,2024-02-03_09:16:03,2257999232,1706951763569480,2299,551599250,1,1.38559075715e-05,-0.0002348646533622,-0.0001192849543095,-0.0007924836216367,-0.0122259821320984,-0.0014401078678356,3012963605
208,2024-02-03_09:16:03,2257999242,1706951763570346,2299,551599260,2,7.09599769465e-05,-0.0004908212155704,-0.0001875860917043,0.0007449515304778,-0.0235445340418483,0.000128560832638,1387813487
209,2024-02-03_09:16:03,2257999252,1706951763570953,2299,551599270,1,1.04102434751e-05,-0.0001644348456689,-0.0001013118831552,-0.0013109422921755,-0.0112532552489303,-0.0008661195651959,3618592406
210,2024-02-03_09:16:03,2257999262,1706951763571825,2299,551599280,1,-1.9446608289e-06,-0.0001160145347733,-0.0001104187662415,-0.0013832715875191,-0.0107732430995442,0.0001326516183261,3097183042
211,2024-02-03_09:16:03,2257999272,1706951763572485,2299,551599290,1,1.2883611295e-05,-0.00010163184860700001,-0.0001047974926935,-0.001028800029614,-0.0110899084735267,-0.000253337291553,3997155195
212,2024-02-03_09:16:03,2257999282,1706951763573699,2299,551599300,2,8.03743524948e-05,-0.0002050159771025,-0.0001575589611299,-0.0019277743756777,-0.0211126143529133,-0.0014400214909316,2468235432
213,2024-02-03_09:16:03,2257999292,1706951763574275,2299,551599310,1,-1.71027476112e-05,-8.29706389142e-05,-5.097944759399999e-05,0.0010928992595237,-0.0108759033182102,-0.0006274753183316,865114556
214,2024-02-03_09:16:03,2257999302,1706951763574888,2299,551599320,1,-3.35169357341e-05,-4.88520416931e-05,-5.1164197111e-05,-0.0005251150070902,-0.0121426917472732,-0.0008265723749678,3137663463
215,2024-02-03_09:16:03,2257999312,1706951763575385,2299,551599330,1,-5.536557688999999e-06,-3.71265832134e-05,-4.41531875548e-05,-0.0019112229869409,-0.011752961903562,-0.0003730692409053,330532497
216,2024-02-03_09:16:03,2257999322,1706951763576089,2299,551599340,2,-8.17213218724e-05,-1.97430153608e-05,-7.4927879911e-05,0.0011634443072689,-0.0196634395508797,-0.0007779963802821,767128608
217,2024-02-03_09:16:03,2257999332,1706951763576654,2299,551599350,1,-5.25590830568e-05,2.93436136827e-05,-4.67041619287e-05,-0.0005296831887192,-0.0111278559961182,-0.002054690445679,1744327558
218,2024-02-03_09:16:03,2257999342,1706951763577176,2299,551599360,1,7.513454232999999e-06,1.55155887795e-05,-3.7065264125e-05,-0.0004223888614489,-0.0119206240992978,-0.0004917591084748,1095586919
219,2024-02-03_09:16:03,2257999352,1706951763577662,2299,551599370,1,4.12050592682e-05,1.43912214036e-05,-3.37985580662e-05,0.0002750580835012,-0.0099340414891814,0.0027762203703725,1358105073
220,2024-02-03_09:16:03,2257999362,1706951763578485,2299,551599380,2,-0.0001515628656179,-6.1160287964e-06,-4.44060176296e-05,5.64938668177e-05,-0.0201264662706752,0.001024483565775,857419618
221,2024-02-03_09:16:03,2257999372,1706951763579047,2299,551599390,1,-0.0001042889617841,4.6552670238e-06,-3.69658272954e-05,0.0017721947651539,-0.0106120162245125,-0.0020149852120542,4230007228
222,2024-02-03_09:16:03,2257999382,1706951763580476,2299,551599400,1,-8.46274457426e-05,2.19577085177e-05,-5.25441208082e-05,0.0009255427188977,-0.0100304765113555,-0.0010743641314304,3737331307
223,2024-02-03_09:16:03,2257999392,1706951763580939,2299,551599410,1,-5.34124433057e-05,-1.50635382087e-05,-4.54039388891e-05,-0.0007148610678974,-0.0100020751113241,-0.0003936099959996,2252155261
224,2024-02-03_09:16:03,2257999402,1706951763581661,2299,551599420,2,-8.22905636837e-05,-0.000105768085415,-0.0001149327117781,0.0010627971865446,-0.0186930954077562,0.0014286598750574,2302467394
225,2024-02-03_09:16:03,2257999412,1706951763582128,2299,551599430,1,-7.9100379472e-05,-7.44049785443e-05,-6.80460788391e-05,0.0011473696350659,-0.009284632977755,-0.0015301408633797,1486468267
226,2024-02-03_09:16:03,2257999422,1706951763582642,2299,551599440,1,-6.17075766574e-05,-8.78846805688e-05,-6.71216733122e-05,0.0012942907643611,-0.0095650591453449,-0.0026453713836413,1493132405
227,2024-02-03_09:16:03,2257999432,1706951763583161,2299,551599450,1,-2.5901852904e-06,-6.97474056263e-05,-8.975623255600001e-05,0.0008292911463194,-0.0100610892430278,-0.0021539301675112,3016462800
228,2024-02-03_09:16:03,2257999442,1706951763584035,2299,551599460,2,-6.47552403401e-05,-0.00020806143478799998,-0.0001977338565043,-0.0007533587034989,-0.014212850320298,0.0017848874032705,1681249330
229,2024-02-03_09:16:03,2257999452,1706951763584702,2299,551599470,1,-0.0001157453275134,-0.0001406075651863,-9.19413921096e-05,0.0011961551597477,-0.008328336377380001,-0.0022086160422549,3900368345
230,2024-02-03_09:16:03,2257999462,1706951763585311,2299,551599480,1,-6.3868300765e-05,-0.000118558038673,-0.0001134144436569,0.0009542452037384,-0.008834808022446999,-0.0040722236349062,2097904311
231,2024-02-03_09:16:03,2257999472,1706951763585823,2299,551599490,1,1.45321758558e-05,-0.0001097388094264,-0.0001283384664558,-0.0003041758191726,-0.0081112336045343,-0.0031605075916649,1169398219
232,2024-02-03_09:16:03,2257999482,1706951763587362,2299,551599500,2,5.0614646609e-05,-0.0001931474464663,-0.0002859332148187,-0.0009247878293477,-0.0124936871443802,-0.0004929610015684,914190106
233,2024-02-03_09:16:03,2257999492,1706951763587872,2299,551599510,1,1.00598826472e-05,-7.47635309835e-05,-0.0001568732751316,-0.0010302714577217,-0.0064513522406244,-0.0016763070914881,954675662
234,2024-02-03_09:16:03,2257999502,1706951763588591,2299,551599520,1,-2.32159047396e-05,-7.13170030856e-05,-0.0001530759788331,-0.00015529989934700002,-0.0062893297526133,-0.0022776213821579998,911313241
235,2024-02-03_09:16:03,2257999512,1706951763589120,2299,551599530,1,2.40696239737e-05,-6.0643764445e-05,-0.0001545702494515,3.37317312152e-05,-0.0062439238696387,-0.0019193389528114,2243280028
236,2024-02-03_09:16:03,2257999522,1706951763589852,2299,551599540,2,0.000106846903343,-5.871831023899999e-05,-0.0003211344677133,0.0014520350715789,-0.0102218690905559,-0.0006985768911933,1229213089
237,2024-02-03_09:16:03,2257999532,1706951763590437,2299,551599550,1,4.31931399e-08,1.70454549887e-05,-0.0001575439425705,0.0014299179502147,-0.0033410625197304,-7.54059524032e-05,54123317
238,2024-02-03_09:16:03,2257999542,1706951763590900,2299,551599560,1,-3.37290100898e-05,2.83950388033e-05,-0.000149638521999,0.0017520307428653,-0.0045120962873217,-0.0023021578645693,2734741857
239,2024-02-03_09:16:03,2257999552,1706951763591442,2299,551599570,1,3.22167437809e-05,3.03084831646e-05,-0.0001421755040764,0.0018138596298110001,-0.0056046738775918,-0.0028871695084061,2345020414
240,2024-02-03_09:16:03,2257999562,1706951763592086,2299,551599580,2,0.0002007350027131,9.13270625211e-05,-0.000275157635576,0.0015263394434234,-0.0073960681561611,0.0013380185731474,3884074785
241,2024-02-03_09:16:03,2257999572,1706951763592625,2299,551599590,1,5.80672905369e-05,3.1276352592e-05,-0.00011703243845400001,0.0012565902634385,-0.0041216590583102,0.0001815303633671,516783458
242,2024-02-03_09:16:03,2257999582,1706951763593532,2299,551599600,1,2.21716057638e-05,4.52270485218e-05,-0.0001024610069332,0.0031728138540371,-0.0038318426159813,-2.53862870549e-05,2205589378
243,2024-02-03_09:16:03,2257999592,1706951763594090,2299,551599610,1,3.61354045534e-05,8.36502138726e-05,-9.69208915741e-05,0.0030578879516949,-0.0055788168523031,-0.0008877610824517,1305985471
244,2024-02-03_09:16:03,2257999602,1706951763594824,2299,551599620,2,0.0001867231634042,0.0001971756757127,-0.0001731600392183,0.0029194748197502,-0.0084696257214471,0.0016263775088281,423562310
245,2024-02-03_09:16:03,2257999612,1706951763595736,2299,551599630,1,2.61106753826e-05,7.05443340452e-05,-5.89516511169e-05,0.0009058702838974,-0.0030125511474488,0.0008161787553279,1661974563
246,2024-02-03_09:16:03,2257999622,1706951763596277,2299,551599640,1,-2.18860047385e-05,4.95591689933e-05,-3.2865817301999995e-05,0.0016593889658385,-0.0038545994221418,0.0002015931983076,1616865248
247,2024-02-03_09:16:03,2257999632,1706951763596869,2299,551599650,1,4.40546231795e-05,4.69425324083e-05,-2.03453112561e-05,0.0021510672848072,-0.0046148111072215,0.0010991329488189,4950913
248,2024-02-03_09:16:03,2257999642,1706951763597605,2299,551599660,2,0.0001598933091668,0.0001174314874103,-3.68237494309e-05,0.0025943873966918,-0.0072322691756098,0.0023747329626594,1846039611
249,2024-02-03_09:16:03,2257999652,1706951763598129,2299,551599670,1,6.73920572327e-05,6.63621994389e-05,-1.54420956748e-05,0.0010352764656527,-0.0029397463108542,0.0017956059627596,1653599100
250,2024-02-03_09:16:03,2257999662,1706951763598818,2299,551599680,1,-1.25265064244e-05,5.95887018967e-05,-4.5136866534e-06,0.0004447823514645,-0.0039917614494009,0.0015981146224181,419589162
251,2024-02-03_09:16:03,2257999672,1706951763599390,2299,551599690,1,1.00595845494e-05,1.96922538604e-05,7.3058931749e-06,8.2945735828e-06,-0.0051030728422597,0.0013172584119875,3258857550
252,2024-02-03_09:16:03,2257999682,1706951763600613,2299,551599700,2,-2.1831267057e-06,3.25210904309e-05,2.0603293021999998e-05,0.0004992598150708,-0.0068145017498777,0.0030292334222692,995747951
253,2024-02-03_09:16:03,2257999692,1706951763601130,2299,551599710,1,-4.23566805444e-05,8.8619187657e-06,1.48835248355e-05,0.0003628081293488,-0.0032982347875227,0.0007624202698248,3241117509
254,2024-02-03_09:16:03,2257999702,1706951763602322,2299,551599720,1,-4.11539884217e-05,6.6632785802e-06,1.55973581154e-05,0.0004379502305577,-0.0045666243348904,0.0005253771286573,4269524352
255,2024-02-03_09:16:03,2257999712,1706951763602820,2299,551599730,1,2.50857474455e-05,2.7527897025e-06,1.58156624298e-05,-0.0006473381048965,-0.0047124056124452,0.0011703362540055,1143447501
256,2024-02-03_09:16:03,2257999722,1706951763603883,2299,551599740,2,-9.926100452e-07,-3.2045004429e-05,4.7382787518e-05,-0.0011227526595802,-0.0063766444578121,0.0045216028371914,746385081
257,2024-02-03_09:16:03,2257999732,1706951763604645,2299,551599750,1,-6.89879607443e-05,5.163920704e-07,1.47279451346e-05,-0.0008499339685393,-0.0031573415117835,0.0003262398776404,825106343
258,2024-02-03_09:16:03,2257999742,1706951763605179,2299,551599760,1,-7.13767321325e-05,1.7078238017e-06,1.14773478624e-05,-0.0017860603240579,-0.0042880178681693,-0.0005778496673196,1177919507
259,2024-02-03_09:16:03,2257999752,1706951763605744,2299,551599770,1,-3.93013851723e-05,-1.39728119883e-05,1.46519338166e-05,-0.0020309904335541,-0.0041130698946178,0.0006130800579461,840819886
260,2024-02-03_09:16:03,2257999762,1706951763606448,2299,551599780,2,-9.14268350603e-05,-3.28998875358e-05,1.74948747787e-05,-0.0034859647922017,-0.0059456154306739995,0.0005542339052455,2501818272
261,2024-02-03_09:16:03,2257999772,1706951763606953,2299,551599790,1,-7.27135579297e-05,3.4526755701e-06,-9.0287521202e-06,-0.0021547860009287,-0.0036263585187126,-0.0005486732126684,114420878
262,2024-02-03_09:16:03,2257999782,1706951763608218,2299,551599800,1,-6.38312011907e-05,1.24296307843e-05,-1.54117843685e-05,-0.0016425006623139997,-0.0038414374700945,-0.0006105794070336,2817186404
263,2024-02-03_09:16:03,2257999792,1706951763608928,2299,551599810,1,-2.04014451687e-05,2.47951891017e-05,-2.55095068593e-05,-0.0008701674205378,-0.0046607790050574,-0.0006417242963262,2842809434
264,2024-02-03_09:16:03,2257999802,1706951763609631,2299,551599820,2,-4.453940566000001e-06,2.87788036488e-05,-5.25453169738e-05,-0.003955406111497,-0.0068648043359482,0.0007391214071942,2348492228
265,2024-02-03_09:16:03,2257999812,1706951763610173,2299,551599830,1,-7.70335122811e-05,-3.9475044793e-06,-1.43270615248e-05,-0.0001932693473796,-0.0040048125632596,-0.0003847430367602,962929640
266,2024-02-03_09:16:03,2257999822,1706951763610652,2299,551599840,1,-5.29040915932e-05,2.60310946651e-05,-2.92720445771e-05,-0.0001734760012176,-0.0037318580230973,-0.0002205292449207,1883000837
267,2024-02-03_09:16:03,2257999832,1706951763611160,2299,551599850,1,-5.83191836061e-05,3.20315468927e-05,-2.74971281311e-05,-0.0008535862989927,-0.0031827780426815,6.01917723577e-05,2128021844
268,2024-02-03_09:16:03,2257999842,1706951763612308,2299,551599860,2,-0.0001195626556015,5.87240301225e-05,-5.16209464629e-05,-0.0010721882768632,-0.0073743021067848,-0.0017286001268009,611306144
269,2024-02-03_09:16:03,2257999852,1706951763613001,2299,551599870,1,-5.54248348846e-05,2.36113870761e-05,-2.33264962548e-05,-0.0004580117429294,-0.0029890225160308,-0.0003678399128039,1223984245
270,2024-02-03_09:16:03,2257999862,1706951763613349,2299,551599880,1,-6.33922736405e-05,6.131888997000001e-06,-6.5739407237e-06,0.000227927970285,-0.0044008774761785,-0.0006010172396925,476980321
271,2024-02-03_09:16:03,2257999872,1706951763613863,2299,551599890,1,-3.49212274391e-05,8.9997950913e-06,-3.2451761899e-06,0.000540214724719,-0.0042327244359258,0.00028130538588599994,3663116693
272,2024-02-03_09:16:03,2257999882,1706951763615299,2299,551599900,2,-5.16614905652e-05,6.0674600190000004e-05,-2.92830881563e-05,0.0004468128887988,-0.0084670256115917,0.0021146110607415,3082170187
273,2024-02-03_09:16:03,2257999892,1706951763615817,2299,551599910,1,-4.24887827132e-05,3.1591114065e-06,9.9920316809e-06,-0.0005414068625097,-0.0038014852005259997,0.0008156119283805,2798445941
274,2024-02-03_09:16:03,2257999902,1706951763616393,2299,551599920,1,-7.06889986395e-05,-3.77172930995e-05,3.25091172721e-05,0.0009090487082275,-0.0033608661976498,0.0010243548858509,514787804
275,2024-02-03_09:16:03,2257999912,1706951763616902,2299,551599930,1,-0.0001000591742747,-3.20525071535e-05,3.40015928818e-05,0.0025064523121724,-0.0039899348086822,-9.942967505e-07,2513136515
276,2024-02-03_09:16:03,2257999922,1706951763617701,2299,551599940,2,-0.0001485836461218,-9.913163547e-06,7.67335836128e-05,0.004067616632475,-0.0077309109874994,0.0007837321598135,2270112503
277,2024-02-03_09:16:03,2257999932,1706951763618277,2299,551599950,1,-6.11368935845e-05,-6.2071352959e-06,5.36464297096e-05,0.00121814198914,-0.0038232784761639,0.0008179721026614,4121278505
278,2024-02-03_09:16:03,2257999942,1706951763618764,2299,551599960,1,-6.29592336522e-05,-2.54552246482e-05,6.55298600272e-05,0.0009122880906231,-0.0039512214340137,0.0009850727570353,1684019846
279,2024-02-03_09:16:03,2257999952,1706951763619505,2299,551599970,1,-7.41065895116e-05,-3.77673828139e-05,7.73228866599e-05,0.0009618299543944,-0.004014675728475,0.0010733140098163,3383433120
280,2024-02-03_09:16:03,2257999962,1706951763620866,2299,551599980,2,-0.0001650095443577,-8.28184264049e-05,0.00018054888231599999,0.0037243823565366,-0.0078926641611889,0.0008090920896702,2231472031
281,2024-02-03_09:16:03,2257999972,1706951763621466,2299,551599990,1,-8.57808015813e-05,-3.49721199699e-05,0.0001051782931197,0.0008286075193353,-0.0040932540192469,-0.0004965666867555,3787130395
282,2024-02-03_09:16:03,2257999982,1706951763622304,2299,551600000,1,-7.38722111073e-05,-3.61278240264e-05,0.0001144106765416,0.0002745975659646,-0.0039972722469215,-0.0002232306539286,679380138
283,2024-02-03_09:16:03,2257999992,1706951763622964,2299,551600010,1,-7.831229533e-05,-3.36406225112e-05,0.0001176457371348,0.0003087287062871,-0.0034129307531757,0.0006169156194605,750716062
284,2024-02-03_09:16:03,2258000002,1706951763623704,2299,551600020,2,-0.000203252551018,-5.8324626349e-05,0.0002533074621676,0.0007541388164809,-0.0070692668615527,-0.0007855991997987,1939261615
285,2024-02-03_09:16:03,2258000012,1706951763624080,2299,551600030,1,-7.4656004574e-05,-2.4619751104e-06,0.0001234928247301,0.000337827593214,-0.0043060885854652,-0.0007828351048804,3593915823
286,2024-02-03_09:16:03,2258000022,1706951763624572,2299,551600040,1,-5.08174619826e-05,9.8402689234e-06,0.0001243941342054,-0.0001500423438417,-0.0034569244136937,0.0009094759850857,1073634133
287,2024-02-03_09:16:03,2258000032,1706951763625084,2299,551600050,1,-6.74570982847e-05,1.9854162890999998e-05,0.0001282453792701,-0.0005651359209441,-0.0035672365073654,0.0002694450804042,4214104117
288,2024-02-03_09:16:03,2258000042,1706951763625696,2299,551600060,2,-0.0001663475521508,4.92092552389e-05,0.0002469623785053,-0.0026185446675437,-0.0090588293419925,-0.0011861618719793,2194299765
289,2024-02-03_09:16:03,2258000052,1706951763626271,2299,551600070,1,-8.62108244843e-05,2.18166461816e-05,0.0001197069152319,-0.0020623796267355,-0.0046989286097295,0.0004156817918235,3337634381
290,2024-02-03_09:16:03,2258000062,1706951763626837,2299,551600080,1,-9.49009187702e-05,2.04730996916e-05,0.0001185039443931,-0.0016649460898246,-0.0045107883441374,-0.0003074171136232,429384764
291,2024-02-03_09:16:03,2258000072,1706951763627680,2299,551600090,1,-8.97850680898e-05,1.4005250034999999e-05,0.000117583618167,-0.0012139748611586,-0.0044718664866859,-0.0001662357108791,3034350217
292,2024-02-03_09:16:03,2258000082,1706951763629152,2299,551600100,2,-0.00018112185513500002,2.29921362753e-05,0.0002050604117422,-0.0020390118019879997,-0.0089291600484971,-0.0007462222397697,818864961
293,2024-02-03_09:16:03,2258000092,1706951763629660,2299,551600110,1,-5.59832320204e-05,1.22735005454e-05,8.76873920269e-05,-0.0015615566144584,-0.0043370096118492,-0.0011744130481119,3900739221
294,2024-02-03_09:16:03,2258000102,1706951763630092,2299,551600120,1,-6.51458075694e-05,1.6932187532e-06,9.05020115145e-05,-0.0021339676253383,-0.0036309792509762,-0.0011852077217181,2847511422
295,2024-02-03_09:16:03,2258000112,1706951763630485,2299,551600130,1,-7.57754751075e-05,-1.39424734211e-05,9.22009341392e-05,-0.0019985531168381,-0.0036009981472994,-0.0011754240672665,1614528237
296,2024-02-03_09:16:03,2258000122,1706951763631174,2299,551600140,2,-0.0001285850216192,-1.49672931939e-05,0.0001590568158257,-0.0024868305210919,-0.0081651918447426,-0.0025700160061408,253255514
297,2024-02-03_09:16:03,2258000132,1706951763631702,2299,551600150,1,-4.90112144141e-05,-8.0657791628e-06,7.60943702949e-05,-0.0008777548036852,-0.0039364892652510005,-0.0016541567112586,123510553
298,2024-02-03_09:16:03,2258000142,1706951763632234,2299,551600160,1,-4.11407430415e-05,-1.62035583543e-05,6.69421205667e-05,-0.0012511134776078,-0.0038939703273833,-0.0016489812887796,3768776101
299,2024-02-03_09:16:03,2258000152,1706951763632650,2299,551600170,1,-2.83678282358e-05,-1.84129885705e-05,5.10005721991e-05,-0.0017222426114674,-0.0043583272761631,-0.0020155499775481,2168616324
300,2024-02-03_09:16:03,2258000162,1706951763633315,2299,551600180,2,-7.06807555013e-05,-0.0001088052765109,0.0001099717986754,-0.004260489174806,-0.0053471044603634,-0.0066429237435525,1801775008
301,2024-02-03_09:16:03,2258000172,1706951763633823,2299,551600190,1,-3.60608539685e-05,-0.0001051893372083,5.4229348666999995e-05,-0.0020524243995172,-0.0028486037856606,-0.0058864077059563,3432087564
302,2024-02-03_09:16:03,2258000182,1706951763634697,2299,551600200,1,5.1854391648e-06,-0.00012365861062799997,4.29844393693e-05,-0.0013520319188736,-0.0024334192101959,-0.0054384830423128,3248703184
303,2024-02-03_09:16:03,2258000192,1706951763635501,2299,551600210,1,3.084786218e-05,-0.0001153461800208,3.77884947141e-05,-0.0003314958167759,-0.002890783506242,-0.0040344906293689,666045131
304,2024-02-03_09:16:03,2258000202,1706951763636607,2299,551600220,2,0.0002203915506603,-0.0002846755120247,0.0001264191999204,-0.0019993552660297,-0.0125226356076246,-0.0018029435954435,568983135
305,2024-02-03_09:16:03,2258000212,1706951763637174,2299,551600230,1,0.0001045850166517,-0.0001756462103119,8.53880705784e-05,0.0002337126936485,-0.0054539734682999,0.0041330737692694,2057144395
