,Localtime,gps_epoch_second,Receivetime,gps_epoch_second,Receivetime,Week,Seconds,DataCount,PitchRate,RollRate,YawRate,LateralAcc,LongitudinalAcc,VerticalAcc,CrcCheck
0,2024-02-03_02:04:18,1706925752 ,1706925858304502,1706925751730 ,1706925858305 ,2299,525769730,1,0.00016321,0.000158698,0.000592183,-0.004369,-0.003059512,-0.001048965,3060703127
1,2024-02-03_02:04:18,1706925752 ,1706925858305034,1706925751740 ,1706925858305 ,2299,525769740,2,0.000279877,0.000349698,0.001191151,-0.008813775,-0.004519729,-0.001779416,616337621
2,2024-02-03_02:04:18,1706925752 ,1706925858305519,1706925751750 ,1706925858306 ,2299,525769750,1,0.000172774,0.000211618,0.000594482,-0.003953917,-0.00305786,-0.002474087,1986830645
3,2024-02-03_02:04:18,1706925752 ,1706925858306043,1706925751760 ,1706925858306 ,2299,525769760,1,0.000265099,0.000233079,0.000585501,-0.004093261,-0.004233452,-0.002042127,3551649551
4,2024-02-03_02:04:18,1706925752 ,1706925858306438,1706925751770 ,1706925858306 ,2299,525769770,1,0.000339228,0.000221971,0.000578854,-0.0054115,-0.003542577,0.00256625,799333277
5,2024-02-03_02:04:18,1706925752 ,1706925858307207,1706925751780 ,1706925858307 ,2299,525769780,2,0.000456713,0.000317434,0.001180563,-0.010850623,-0.002332444,0.009551176,3437417614
6,2024-02-03_02:04:18,1706925752 ,1706925858307675,1706925751790 ,1706925858308 ,2299,525769790,1,0.000105258,7.44437441089e-05,0.000612166,-0.004434074,-0.003044049,-0.000177519,3699225498
7,2024-02-03_02:04:18,1706925752 ,1706925858308837,1706925751800 ,1706925858309 ,2299,525769800,1,0.000161794,5.48210532522e-05,0.000610272,-0.003984828,-0.003686582,0.00033222,777462467
8,2024-02-03_02:04:18,1706925752 ,1706925858309409,1706925751810 ,1706925858309 ,2299,525769810,1,0.000220351,3.09440993874e-05,0.000614437,-0.005414341,-0.002519992,0.00335533,1745161401
9,2024-02-03_02:04:18,1706925752 ,1706925858310030,1706925751820 ,1706925858310 ,2299,525769820,2,0.000250644,-9.45E-05,0.001239845,-0.013097508,-0.001693905,0.009367371,1814434900
10,2024-02-03_02:04:18,1706925752 ,1706925858310633,1706925751830 ,1706925858311 ,2299,525769830,1,5.33316649124e-05,-0.000161571,0.000610962,-0.007421536,-0.003105977,0.002773531,3093575627
11,2024-02-03_02:04:18,1706925752 ,1706925858311121,1706925751840 ,1706925858311 ,2299,525769840,1,7.83012077377e-05,-0.000282083,0.000617381,-0.007616962,-0.00255251,0.003866788,1868321607
12,2024-02-03_02:04:18,1706925752 ,1706925858311581,1706925751850 ,1706925858312 ,2299,525769850,1,9.31622218204e-05,-0.000409267,0.00061528,-0.007051039,-0.003259825,0.004333123,1510544000
13,2024-02-03_02:04:18,1706925752 ,1706925858312266,1706925751860 ,1706925858312 ,2299,525769860,2,-3.04E-05,-0.001159822,0.001129581,-0.019004049,-0.002771485,0.013677078350176002,1871351430
14,2024-02-03_02:04:18,1706925752 ,1706925858312693,1706925751870 ,1706925858313 ,2299,525769870,1,-0.000215115,-0.000832663,0.000565842,-0.010736824,-0.001554893,0.005492411,2753948619
15,2024-02-03_02:04:18,1706925752 ,1706925858313186,1706925751880 ,1706925858313 ,2299,525769880,1,-0.000260487,-0.000972486,0.000595205,-0.009894165,-0.003089675,0.001280133,1068924917
16,2024-02-03_02:04:18,1706925752 ,1706925858313668,1706925751890 ,1706925858314 ,2299,525769890,1,-0.000212602,-0.001023935,0.000596564,-0.009493549,-0.005454424,-0.001450856,1453835327
17,2024-02-03_02:04:18,1706925752 ,1706925858314635,1706925751900 ,1706925858315 ,2299,525769900,2,-0.000248098,-0.001897996,0.001066172,-0.019547859,-0.009114066,0.002506561,4290540001
18,2024-02-03_02:04:18,1706925752 ,1706925858315028,1706925751910 ,1706925858315 ,2299,525769910,1,-0.000157638,-0.000840864,0.000513782,-0.008542456,-0.003366928,0.001045533,4162576801
19,2024-02-03_02:04:18,1706925752 ,1706925858315690,1706925751920 ,1706925858316 ,2299,525769920,1,-0.000159146,-0.00072546,0.000516264,-0.00776843,-0.005460452,-0.001151524,4238681284
20,2024-02-03_02:04:18,1706925752 ,1706925858316246,1706925751930 ,1706925858316 ,2299,525769930,1,-4.68E-05,-0.000605414,0.000493873,-0.009913954,-0.005627702,-0.000996573,3626667530
21,2024-02-03_02:04:18,1706925752 ,1706925858317205,1706925751940 ,1706925858317 ,2299,525769940,2,-2.21E-05,-0.001088974,0.00095972,-0.020633413,-0.001786514,0.00427075,1963086994
22,2024-02-03_02:04:18,1706925752 ,1706925858317632,1706925751950 ,1706925858318 ,2299,525769950,1,-0.000180087,-0.000413255,0.000447352,-0.006172166,-0.001133529,-0.000338013,3581585430
23,2024-02-03_02:04:18,1706925752 ,1706925858318140,1706925751960 ,1706925858318 ,2299,525769960,1,-0.000218983,-0.000307806,0.000445903,-0.006074926,-0.002191536,5.6776731003e-06,1165739655
24,2024-02-03_02:04:18,1706925752 ,1706925858318634,1706925751970 ,1706925858319 ,2299,525769970,1,-0.000214828,-0.000198218,0.000454774,-0.004149353,-0.005066585,-0.000251635,2850332053
25,2024-02-03_02:04:18,1706925752 ,1706925858319334,1706925751980 ,1706925858319 ,2299,525769980,2,-0.000236799,1.91557803035e-05,0.000932778,-0.001756174,-0.007233611,-0.002696939,1876111020
26,2024-02-03_02:04:18,1706925752 ,1706925858319716,1706925751990 ,1706925858320 ,2299,525769990,1,-0.000163226,0.00015952,0.000533315,-0.000437955,-0.001969787,-0.002651829,3678746331
27,2024-02-03_02:04:18,1706925752 ,1706925858320628,1706925752000 ,1706925858321 ,2299,525770000,1,-0.000115869,0.000250941,0.000552659,0.000518577,-0.003751843,-0.002371799,3873101044
28,2024-02-03_02:04:18,1706925752 ,1706925858321108,1706925752010 ,1706925858321 ,2299,525770010,1,-1.22E-05,0.000348492,0.000535244,0.000787504,-0.001702249,0.002172591,38894799
29,2024-02-03_02:04:18,1706925752 ,1706925858321765,1706925752020 ,1706925858322 ,2299,525770020,2,-7.25E-05,0.00082438,0.001078709,0.006163956,-0.000837562,-3.27E-05,290136287
30,2024-02-03_02:04:18,1706925752 ,1706925858322251,1706925752030 ,1706925858322 ,2299,525770030,1,-5.88E-05,0.000315418,0.000597353,0.003210728,-0.002244964,-0.003675233,3822967946
31,2024-02-03_02:04:18,1706925752 ,1706925858322631,1706925752040 ,1706925858323 ,2299,525770040,1,-6.79E-05,0.000248005,0.000610543,0.003870169,-0.002094052,-0.000500434,2526023110
32,2024-02-03_02:04:18,1706925752 ,1706925858323209,1706925752050 ,1706925858323 ,2299,525770050,1,-6.39E-05,0.000197359,0.00061791,0.004519075,-0.002642029,5.80882812118e-05,3571310
33,2024-02-03_02:04:18,1706925752 ,1706925858324424,1706925752060 ,1706925858324 ,2299,525770060,2,-0.000144497,0.000241805,0.001262752,0.009333358,-0.004070933,-0.001808431,4001903261
34,2024-02-03_02:04:18,1706925752 ,1706925858324894,1706925752070 ,1706925858325 ,2299,525770070,1,-5.50E-05,3.35450698579e-05,0.000647113,0.001632643,-0.001966505,-0.002058183,3937214547
35,2024-02-03_02:04:18,1706925752 ,1706925858325331,1706925752080 ,1706925858325 ,2299,525770080,1,-2.89E-06,-5.61E-05,0.000656458,0.000907672,-0.002453443,0.000498229,3939731074
36,2024-02-03_02:04:18,1706925752 ,1706925858325762,1706925752090 ,1706925858326 ,2299,525770090,1,4.48257995655e-05,-0.000111318,0.000661839,0.000981436,-0.003256337,0.001966293,63395643
37,2024-02-03_02:04:18,1706925752 ,1706925858327032,1706925752100 ,1706925858327 ,2299,525770100,2,0.000116339,-0.00029815,0.001344875,0.000903254,-0.005068309,0.000159703,3647683848
38,2024-02-03_02:04:18,1706925752 ,1706925858327469,1706925752110 ,1706925858327 ,2299,525770110,1,1.0190234183e-06,-0.000122985,0.000663913,-0.001610852,-0.00306739,0.000908448,459342141
39,2024-02-03_02:04:18,1706925752 ,1706925858327927,1706925752120 ,1706925858328 ,2299,525770120,1,3.510964353499999e-05,-6.68E-05,0.000644758,-0.0037404,-0.002732866,0.002871805,3459640477
40,2024-02-03_02:04:18,1706925752 ,1706925858328317,1706925752130 ,1706925858328 ,2299,525770130,1,3.3799370221e-06,-2.59E-05,0.000645821,-0.004804809,-0.001663264,0.003755765,532630891
41,2024-02-03_02:04:18,1706925752 ,1706925858329037,1706925752140 ,1706925858329 ,2299,525770140,2,-0.000148407,7.58617451367e-05,0.001286465,-0.013022181,-0.004792219,0.003774934,2030278460
42,2024-02-03_02:04:18,1706925752 ,1706925858329517,1706925752150 ,1706925858330 ,2299,525770150,1,-5.69E-05,8.36937016325e-05,0.000626209,-0.008388812,-0.004328139,-0.000301078,2739051854
43,2024-02-03_02:04:18,1706925752 ,1706925858329998,1706925752160 ,1706925858330 ,2299,525770160,1,6.5334627666e-06,0.000105752,0.000604993,-0.008198596,-0.004265951,0.000850189,2573762809
44,2024-02-03_02:04:18,1706925752 ,1706925858330515,1706925752170 ,1706925858331 ,2299,525770170,1,4.21119296419e-05,0.00012997,0.000580635,-0.008800411,-0.002530842,0.001537891,2414497760
45,2024-02-03_02:04:18,1706925752 ,1706925858331457,1706925752180 ,1706925858331 ,2299,525770180,2,-7.68E-05,0.000251487,0.001126626,-0.015252792,-0.00443424,-3.31E-05,4202519883
46,2024-02-03_02:04:18,1706925752 ,1706925858331983,1706925752190 ,1706925858332 ,2299,525770190,1,-1.58E-05,0.000222967,0.000518243,-0.003849078,-0.003502151,0.001221557,966690391
47,2024-02-03_02:04:18,1706925752 ,1706925858333028,1706925752200 ,1706925858333 ,2299,525770200,1,3.50205686751e-05,0.000274809,0.000499236,-0.00566114,-0.004247166,0.002034117,2404817325
48,2024-02-03_02:04:18,1706925752 ,1706925858333510,1706925752210 ,1706925858334 ,2299,525770210,1,2.52375296208e-05,0.000244764,0.000490941,-0.009443923,-0.002221816,0.00392723,4094449559
49,2024-02-03_02:04:18,1706925752 ,1706925858334355,1706925752220 ,1706925858334 ,2299,525770220,2,-0.000257805,0.000179993,0.001062592,-0.02147193,-0.003810386,-0.010266572,4064590548
50,2024-02-03_02:04:18,1706925752 ,1706925858334806,1706925752230 ,1706925858335 ,2299,525770230,1,-9.33E-05,-3.58E-05,0.000556146,-0.002492085,-0.004517891,-0.012935992,773654727
51,2024-02-03_02:04:18,1706925752 ,1706925858335265,1706925752240 ,1706925858335 ,2299,525770240,1,3.57995286915e-05,4.34644103827e-05,0.000509164,-0.00329158,-0.002712719,-0.010866057,3858820079
52,2024-02-03_02:04:18,1706925752 ,1706925858335720,1706925752250 ,1706925858336 ,2299,525770250,1,9.225027037e-05,1.75145186521e-05,0.000501666,-0.005741117,-0.004822462,-0.015146491,667012196
53,2024-02-03_02:04:18,1706925752 ,1706925858336289,1706925752260 ,1706925858336 ,2299,525770260,2,0.00066266,-0.000370759,0.000894044,-0.011067856,-0.003712246,-0.021103527,2555915495
54,2024-02-03_02:04:18,1706925752 ,1706925858336693,1706925752270 ,1706925858337 ,2299,525770270,1,0.000324767,-0.000332307,0.000421581,-0.002604372,0.001621884,-0.002011317,45898428
55,2024-02-03_02:04:18,1706925752 ,1706925858337046,1706925752280 ,1706925858337 ,2299,525770280,1,0.000148883,-0.000374948,0.000483372,0.001104929,-0.003884512,-0.00098599,1855211321
56,2024-02-03_02:04:18,1706925752 ,1706925858337557,1706925752290 ,1706925858338 ,2299,525770290,1,0.000388877,-0.000426174,0.000530858,-0.003858879,-0.005665108,0.002843685,3193157106
57,2024-02-03_02:04:18,1706925752 ,1706925858338391,1706925752300 ,1706925858338 ,2299,525770300,2,0.000879297,-0.000999358,0.001141919,-0.008290562,-0.00907072,0.020125993,3350641266
58,2024-02-03_02:04:18,1706925752 ,1706925858338819,1706925752310 ,1706925858339 ,2299,525770310,1,-1.92E-05,-0.000364372,0.000579214,0.005837298,0.005018419,0.01581255,2380340383
59,2024-02-03_02:04:18,1706925752 ,1706925858339644,1706925752320 ,1706925858340 ,2299,525770320,1,-0.000475898,-0.000201156,0.000587061,0.002652504,-0.00394747,0.002701652,405276663
60,2024-02-03_02:04:18,1706925752 ,1706925858340320,1706925752330 ,1706925858340 ,2299,525770330,1,-0.000276405,-0.000141418,0.000595641,-0.002592359,-0.006234507,-0.003793801,765335070
61,2024-02-03_02:04:18,1706925752 ,1706925858341223,1706925752340 ,1706925858341 ,2299,525770340,2,6.49446496981e-05,-0.00015717,0.001163943,-0.011645533,-0.004783902,0.001836442,1777308831
62,2024-02-03_02:04:18,1706925752 ,1706925858341720,1706925752350 ,1706925858342 ,2299,525770350,1,6.8605749444e-06,-7.03E-05,0.00060397,-0.007098447,-0.003638248,0.005452486,1869846416
63,2024-02-03_02:04:18,1706925752 ,1706925858342119,1706925752360 ,1706925858342 ,2299,525770360,1,4.30272677617e-05,-8.14E-05,0.000619992,-0.006442396,-0.003808987,0.004721437,248252874
64,2024-02-03_02:04:18,1706925752 ,1706925858342439,1706925752370 ,1706925858342 ,2299,525770370,1,4.65420169812e-05,-5.11E-05,0.00061216,-0.006071287,-0.004584225,0.00374967,1020897066
65,2024-02-03_02:04:18,1706925752 ,1706925858343082,1706925752380 ,1706925858343 ,2299,525770380,2,0.000327042,3.05905511518e-05,0.001161799,-0.011094026,-0.005786878,0.008819989,3293609928
66,2024-02-03_02:04:18,1706925752 ,1706925858343640,1706925752390 ,1706925858344 ,2299,525770390,1,8.69456281431e-05,0.000143946,0.000525749,-0.005225316,0.000661998,0.003570815,3408884357
67,2024-02-03_02:04:18,1706925752 ,1706925858344484,1706925752400 ,1706925858344 ,2299,525770400,1,-0.000142821,0.000164354,0.000505557,-0.009751077,-0.000274291,0.002210152,3963049439
68,2024-02-03_02:04:18,1706925752 ,1706925858345036,1706925752410 ,1706925858345 ,2299,525770410,1,-0.000251658,5.43626160109e-05,0.000523906,-0.011582845,-0.003849638,0.000756761,2543248173
69,2024-02-03_02:04:18,1706925752 ,1706925858345927,1706925752420 ,1706925858346 ,2299,525770420,2,-0.000403659,-9.88E-05,0.001038302,-0.009759529,-0.004893618,-0.001612708,1842640627
70,2024-02-03_02:04:18,1706925752 ,1706925858346509,1706925752430 ,1706925858347 ,2299,525770430,1,-7.07E-05,-3.09E-05,0.000489034,-0.001417409,-0.002153432,-0.003080636,899375173
71,2024-02-03_02:04:18,1706925752 ,1706925858347077,1706925752440 ,1706925858347 ,2299,525770440,1,-3.49E-05,2.82426327932e-05,0.000467498,-0.000915172,-0.00142958,-0.001441213,486313799
72,2024-02-03_02:04:18,1706925752 ,1706925858347757,1706925752450 ,1706925858348 ,2299,525770450,1,-4.71E-06,9.66138209922e-05,0.000432306,-0.002738997,-0.003565447,-0.001234769,1940643646
73,2024-02-03_02:04:18,1706925752 ,1706925858348636,1706925752460 ,1706925858349 ,2299,525770460,2,0.000180122,4.86983738365e-05,0.000854927,-0.010104353,-0.004497613,-0.001213801,616546715
74,2024-02-03_02:04:18,1706925752 ,1706925858349221,1706925752470 ,1706925858349 ,2299,525770470,1,-1.96E-05,-0.000114576,0.000434799,-0.003077458,-0.000638783,-0.002288488,507872465
75,2024-02-03_02:04:18,1706925752 ,1706925858349685,1706925752480 ,1706925858350 ,2299,525770480,1,-0.000169211,-0.000166201,0.000426584,-0.001391385,0.000988975,-0.001449604,620637320
76,2024-02-03_02:04:18,1706925752 ,1706925858350310,1706925752490 ,1706925858350 ,2299,525770490,1,-0.000293105,-0.000175114,0.000410328,-0.000818923,-0.000658853,-0.00144534,4232019530
77,2024-02-03_02:04:18,1706925753 ,1706925858351611,1706925752500 ,1706925858352 ,2299,525770500,2,-0.000472224,-0.000369251,0.000759867,-0.004904517,-0.006457842,-0.003036785,4250983936
78,2024-02-03_02:04:18,1706925753 ,1706925858352184,1706925752510 ,1706925858352 ,2299,525770510,1,-0.000140218,-0.000250124,0.000374248,-0.004291301,-0.002904199,0.001046841,4263941012
79,2024-02-03_02:04:18,1706925753 ,1706925858352673,1706925752520 ,1706925858353 ,2299,525770520,1,-0.000162727,-0.00030023,0.000382288,-0.003851795,-0.002996432,0.000860997,1759072414
80,2024-02-03_02:04:18,1706925753 ,1706925858353185,1706925752530 ,1706925858353 ,2299,525770530,1,-0.000157889,-0.000338744,0.000401218,-0.001875582,-0.00302437,-0.00064072,653801152
81,2024-02-03_02:04:18,1706925753 ,1706925858353858,1706925752540 ,1706925858354 ,2299,525770540,2,-0.000233427,-0.000568752,0.00077774,-0.002926259,-0.007280002,-0.002683497,1930709994
82,2024-02-03_02:04:18,1706925753 ,1706925858354508,1706925752550 ,1706925858355 ,2299,525770550,1,4.398888397e-07,-0.000218388,0.000375573,-0.004194104,-0.002339382,0.000206828,3043296605
83,2024-02-03_02:04:18,1706925753 ,1706925858355178,1706925752560 ,1706925858355 ,2299,525770560,1,-8.43E-05,-0.000203602,0.000386435,-0.00393852,-2.15E-05,-9.55E-05,3029578801
84,2024-02-03_02:04:18,1706925753 ,1706925858356016,1706925752570 ,1706925858356 ,2299,525770570,1,-0.000217271,-0.00019186,0.000400901,-0.003135313,-0.002148405,-0.001985392,3703565398
85,2024-02-03_02:04:18,1706925753 ,1706925858357111,1706925752580 ,1706925858357 ,2299,525770580,2,-0.000372498,-0.000215646,0.000784529,-0.00267574,-0.005770615,-0.001340181,3064794756
86,2024-02-03_02:04:18,1706925753 ,1706925858357661,1706925752590 ,1706925858358 ,2299,525770590,1,-0.000160348,3.0569260045e-06,0.000373059,-0.00185243,-0.002640876,-0.000241956,265550079
87,2024-02-03_02:04:18,1706925753 ,1706925858358688,1706925752600 ,1706925858359 ,2299,525770600,1,-0.000123009,5.7140957733999995e-05,0.000365208,-0.002535689,-0.003316821,-0.001240711,4228580621
88,2024-02-03_02:04:18,1706925753 ,1706925858359271,1706925752610 ,1706925858359 ,2299,525770610,1,-7.76E-05,9.06764743838e-05,0.000370044,-0.002306071,-0.001795395,-0.00050128,4095536758
89,2024-02-03_02:04:18,1706925753 ,1706925858360124,1706925752620 ,1706925858360 ,2299,525770620,2,-0.00021397,0.000300767,0.000782366,-0.002383104,-0.004815415,0.000801492,1802839963
90,2024-02-03_02:04:18,1706925753 ,1706925858360634,1706925752630 ,1706925858361 ,2299,525770630,1,-8.27E-05,0.00025148,0.000399548,0.000922152,-0.003179941,0.001734711,168404505
91,2024-02-03_02:04:18,1706925753 ,1706925858361112,1706925752640 ,1706925858361 ,2299,525770640,1,-0.000116211,0.000372371,0.000379241,0.002014726,-0.001966607,0.003573041,3775767825
92,2024-02-03_02:04:18,1706925753 ,1706925858361634,1706925752650 ,1706925858362 ,2299,525770650,1,-0.000183582,0.00049033,0.000348786,0.000315458,-0.000365022,0.005441939,1041090086
93,2024-02-03_02:04:18,1706925753 ,1706925858362337,1706925752660 ,1706925858362 ,2299,525770660,2,-0.000659486,0.0009429,0.000744857,-0.006256928,-0.00134276,-0.001182261,4097852359
94,2024-02-03_02:04:18,1706925753 ,1706925858362902,1706925752670 ,1706925858363 ,2299,525770670,1,-0.000374567,0.00034261,0.000412801,-0.001193976,-0.002433054,-0.006295861,2406813198
95,2024-02-03_02:04:18,1706925753 ,1706925858363765,1706925752680 ,1706925858364 ,2299,525770680,1,-0.000237198,0.00032775,0.000403976,0.003403507,-0.003386371,-0.006238964,3415915801
96,2024-02-03_02:04:18,1706925753 ,1706925858364628,1706925752690 ,1706925858365 ,2299,525770690,1,-0.000201094,0.000418283,0.00036954,0.007866811,-0.002195674,-0.003787776,1967938724
97,2024-02-03_02:04:18,1706925753 ,1706925858365782,1706925752700 ,1706925858366 ,2299,525770700,2,-0.000387789,0.001262473,0.00056276,0.005383746,-0.005644802,-0.006345192,587565211
98,2024-02-03_02:04:18,1706925753 ,1706925858366421,1706925752710 ,1706925858366 ,2299,525770710,1,-1.00E-04,0.000554684,0.00026958,-0.007218294,-0.00510357,-0.005217969,194876465
99,2024-02-03_02:04:18,1706925753 ,1706925858367034,1706925752720 ,1706925858367 ,2299,525770720,1,3.00215970904e-05,0.000347033,0.0003041,-0.004340824,-0.00340948,-0.000722098,921286768
100,2024-02-03_02:04:18,1706925753 ,1706925858367510,1706925752730 ,1706925858368 ,2299,525770730,1,-1.74E-05,0.000252514,0.000305747,0.001479562,-0.001283156,0.003657263,3808262724
101,2024-02-03_02:04:18,1706925753 ,1706925858368443,1706925752740 ,1706925858368 ,2299,525770740,2,-0.000343697,0.000584128,0.000477986,0.005989223,-0.008073105,0.000627525,3728016857
102,2024-02-03_02:04:18,1706925753 ,1706925858368911,1706925752750 ,1706925858369 ,2299,525770750,1,-8.41E-05,0.000298667,0.000175628,-0.001583824,-0.004276077,-0.000781142,2516243594
103,2024-02-03_02:04:18,1706925753 ,1706925858369332,1706925752760 ,1706925858369 ,2299,525770760,1,-4.65E-05,0.000199349,0.000171413,-0.005244972,-0.003447553,0.001784909,1763621089
104,2024-02-03_02:04:18,1706925753 ,1706925858369901,1706925752770 ,1706925858370 ,2299,525770770,1,-4.83E-05,5.9055372664e-05,0.00018789,-0.005301316,-0.002782608,0.003519433,329812752
105,2024-02-03_02:04:18,1706925753 ,1706925858370634,1706925752780 ,1706925858371 ,2299,525770780,2,-0.000100462,-0.000144742,0.000433168,-0.004553646,-0.007011435,0.002528768,462474367
106,2024-02-03_02:04:18,1706925753 ,1706925858371165,1706925752790 ,1706925858371 ,2299,525770790,1,6.24832128117e-05,-0.000132592,0.000224727,-0.001766822,-0.004066329,0.001290011,3168734200
107,2024-02-03_02:04:18,1706925753 ,1706925858372454,1706925752800 ,1706925858372 ,2299,525770800,1,0.000172325,-0.000137056,0.00020967,-0.0029939,-0.00353397,0.001456687,3861600051
108,2024-02-03_02:04:18,1706925753 ,1706925858373015,1706925752810 ,1706925858373 ,2299,525770810,1,0.000207555,-0.000149878,0.000190473,-0.005984985,-0.004107226,4.76038143566e-05,2633781756
109,2024-02-03_02:04:18,1706925753 ,1706925858373745,1706925752820 ,1706925858374 ,2299,525770820,2,0.000351733,-0.00053754,0.000411465,-0.016599058,-0.004656001,0.004858237,3420070413
110,2024-02-03_02:04:18,1706925753 ,1706925858374234,1706925752830 ,1706925858374 ,2299,525770830,1,6.61832704775e-05,-0.00043238,0.000278815,-0.007414509,0.00079755,0.001628921,1996469126
111,2024-02-03_02:04:18,1706925753 ,1706925858374815,1706925752840 ,1706925858375 ,2299,525770840,1,-5.29E-06,-0.000429045,0.000302782,-0.002518186,-0.001941715,-0.006815253,966275154
112,2024-02-03_02:04:18,1706925753 ,1706925858375295,1706925752850 ,1706925858375 ,2299,525770850,1,0.000147843,-0.000299366,0.000265549,-0.001359801,-0.004558984,-0.010075915,24906081
113,2024-02-03_02:04:18,1706925753 ,1706925858375957,1706925752860 ,1706925858376 ,2299,525770860,2,0.000597529,-0.000359725,0.00051715,-0.015486594,-0.003280246,-0.002295745,1852599392
114,2024-02-03_02:04:18,1706925753 ,1706925858376635,1706925752870 ,1706925858377 ,2299,525770870,1,0.000317516,-0.000216173,0.000311637,-0.008254086,-0.002355524,-0.00078866,2148482345
115,2024-02-03_02:04:18,1706925753 ,1706925858377161,1706925752880 ,1706925858377 ,2299,525770880,1,0.000268815,-0.000218619,0.000320159,-0.00647472,-0.001075013,-0.002553302,3792820073
116,2024-02-03_02:04:18,1706925753 ,1706925858377726,1706925752890 ,1706925858378 ,2299,525770890,1,0.000158044,-0.000202647,0.000334585,-0.003953942,-0.000863483,-0.004569029,3785202978
117,2024-02-03_02:04:18,1706925753 ,1706925858379176,1706925752900 ,1706925858379 ,2299,525770900,2,0.000465626,-0.000198889,0.000622284,-0.003459715,-0.006191257,-0.010736577,2358456386
118,2024-02-03_02:04:18,1706925753 ,1706925858379908,1706925752910 ,1706925858380 ,2299,525770910,1,0.000298767,-2.34E-06,0.000267816,-0.0040217,-0.001110151,-0.001335957,252254560
119,2024-02-03_02:04:18,1706925753 ,1706925858380644,1706925752920 ,1706925858381 ,2299,525770920,1,0.000160114,-3.43E-05,0.000274836,-0.005007507,-0.001282262,-0.00031368,2255167636
120,2024-02-03_02:04:18,1706925753 ,1706925858381131,1706925752930 ,1706925858381 ,2299,525770930,1,0.000108032,-0.000112911,0.000293416,-0.004571614,-0.003796683,-0.001517647,2499340296
121,2024-02-03_02:04:18,1706925753 ,1706925858381896,1706925752940 ,1706925858382 ,2299,525770940,2,0.000344685,-0.000387423,0.000603013,-0.002786108,-0.004176224,0.001148775,1944516834
122,2024-02-03_02:04:18,1706925753 ,1706925858382419,1706925752950 ,1706925858382 ,2299,525770950,1,0.000207856,-0.000157154,0.000269625,0.001180415,-0.00359932,-5.50E-05,2989850926
123,2024-02-03_02:04:18,1706925753 ,1706925858382988,1706925752960 ,1706925858383 ,2299,525770960,1,0.000290162,-0.000111468,0.000229992,-0.000478128,-0.002924518,0.002391618,4055602635
124,2024-02-03_02:04:18,1706925753 ,1706925858383636,1706925752970 ,1706925858384 ,2299,525770970,1,0.000273396,-0.000119949,0.000220847,-0.003457042,-0.001052898,0.005707557,2103889326
125,2024-02-03_02:04:18,1706925753 ,1706925858384477,1706925752980 ,1706925858384 ,2299,525770980,2,9.50858622039e-05,-0.000424761,0.000494664,-0.005200485,-0.001781838,0.005860333,2367572494
126,2024-02-03_02:04:18,1706925753 ,1706925858385073,1706925752990 ,1706925858385 ,2299,525770990,1,-4.47E-05,-0.000245166,0.000238338,0.001184298,-0.002366578,0.000517648,3433201461
127,2024-02-03_02:04:18,1706925753 ,1706925858386072,1706925753000 ,1706925858386 ,2299,525771000,1,-5.36E-05,-0.000208722,0.000220892,0.002211842,-0.002260632,0.000897893,2426597168
128,2024-02-03_02:04:18,1706925753 ,1706925858386630,1706925753010 ,1706925858387 ,2299,525771010,1,-4.23E-05,-0.00016275,0.000201089,0.001441827,-0.002087603,0.001024729,1309692561
129,2024-02-03_02:04:18,1706925753 ,1706925858387752,1706925753020 ,1706925858388 ,2299,525771020,2,-3.74E-05,-0.000285385,0.000356877,-0.003521788,-0.005211893,-0.004523946,1334939465
130,2024-02-03_02:04:18,1706925753 ,1706925858388452,1706925753030 ,1706925858388 ,2299,525771030,1,-7.92E-07,-0.000174396,0.000187755,-0.001731604,-0.001569386,-0.004300308,3023634876
131,2024-02-03_02:04:18,1706925753 ,1706925858388941,1706925753040 ,1706925858389 ,2299,525771040,1,4.4768963573e-06,-0.000168137,0.000193979,0.000118862,-0.00201419,-0.006251792,3302194427
132,2024-02-03_02:04:18,1706925753 ,1706925858389446,1706925753050 ,1706925858389 ,2299,525771050,1,4.75580446436e-05,-0.000120963,0.000178188,0.000923156,-0.00181349,-0.006564863,2631043883
133,2024-02-03_02:04:18,1706925753 ,1706925858390297,1706925753060 ,1706925858390 ,2299,525771060,2,0.000109435,-5.99E-05,0.00030434,0.003600183,-0.004043879,-0.01030233,2693319150
134,2024-02-03_02:04:18,1706925753 ,1706925858390885,1706925753070 ,1706925858391 ,2299,525771070,1,9.0319036192e-05,4.81782374253e-05,0.000143932,0.001744166,-0.0018083,-0.00427172,692256253
135,2024-02-03_02:04:18,1706925753 ,1706925858391381,1706925753080 ,1706925858391 ,2299,525771080,1,5.36744248575e-05,7.50066701063e-05,0.00016471,0.002628781,-0.000811963,-0.003960284,2262586835
136,2024-02-03_02:04:18,1706925753 ,1706925858391859,1706925753090 ,1706925858392 ,2299,525771090,1,1.94880212495e-05,0.000112919,0.000180447,0.00370979,-0.0022824,-0.005775995,759964449
137,2024-02-03_02:04:18,1706925753 ,1706925858393040,1706925753100 ,1706925858393 ,2299,525771100,2,0.000129437,0.000353878,0.00036062,0.011657295,-0.002944379,-0.009398305,437707844
138,2024-02-03_02:04:18,1706925753 ,1706925858393637,1706925753110 ,1706925858394 ,2299,525771110,1,8.72146763663e-05,0.000272911,0.000170664,0.006206557,-0.00373827,-0.003689091,2648357256
139,2024-02-03_02:04:18,1706925753 ,1706925858394141,1706925753120 ,1706925858394 ,2299,525771120,1,0.000171586,0.000240519,0.000194673,0.003903536,-0.002508124,0.001501533,2803965121
140,2024-02-03_02:04:18,1706925753 ,1706925858394653,1706925753130 ,1706925858395 ,2299,525771130,1,0.000110738,0.000184012,0.000225587,0.00527435,-0.001129059,0.005257542,1946654465
141,2024-02-03_02:04:18,1706925753 ,1706925858395629,1706925753140 ,1706925858396 ,2299,525771140,2,0.000177546,0.000369774,0.000462635,0.014195277,-0.007228104,0.00809214,1197038067
142,2024-02-03_02:04:18,1706925753 ,1706925858396333,1706925753150 ,1706925858396 ,2299,525771150,1,9.36990546864e-05,0.000160902,0.000250568,0.004950938,-0.002152478,0.009919068,3462298393
143,2024-02-03_02:04:18,1706925753 ,1706925858396901,1706925753160 ,1706925858397 ,2299,525771160,1,3.99630834941e-05,0.000146477,0.000255746,0.004032387,-0.002783976,0.009204746,2226608795
144,2024-02-03_02:04:18,1706925753 ,1706925858397300,1706925753170 ,1706925858397 ,2299,525771170,1,-3.00E-05,0.000131664,0.000249223,0.001310113,-0.001904646,0.008539644,2068414318
145,2024-02-03_02:04:18,1706925753 ,1706925858397902,1706925753180 ,1706925858398 ,2299,525771180,2,-0.000290054,9.96586073986e-05,0.00055467,-0.004148205,-0.005954163,0.018414891,103792194
146,2024-02-03_02:04:18,1706925753 ,1706925858398340,1706925753190 ,1706925858398 ,2299,525771190,1,-9.03E-05,-3.14E-05,0.000302505,-0.003701293,-0.002410675,0.009137691,2630820755
147,2024-02-03_02:04:18,1706925753 ,1706925858399071,1706925753200 ,1706925858399 ,2299,525771200,1,-8.43E-05,-1.88E-05,0.000285286,-0.003382051,-0.002743263,0.007525606,569945990
148,2024-02-03_02:04:18,1706925753 ,1706925858399475,1706925753210 ,1706925858399 ,2299,525771210,1,-8.54E-05,4.92242560978e-05,0.000234929,-0.00381924,-0.003674248,0.006737777,3651812612
149,2024-02-03_02:04:18,1706925753 ,1706925858400115,1706925753220 ,1706925858400 ,2299,525771220,2,-0.00013295,0.00020088,0.000359878,-0.018965809,-0.008374784,0.020089385,1523725949
150,2024-02-03_02:04:18,1706925753 ,1706925858400632,1706925753230 ,1706925858401 ,2299,525771230,1,-0.000110261,2.8526998033e-06,0.000183053,-0.014627175,-0.002180999,0.011681707,1180399737
151,2024-02-03_02:04:18,1706925753 ,1706925858401091,1706925753240 ,1706925858401 ,2299,525771240,1,-0.000246642,-9.46E-05,0.000196955,-0.01214033,-0.000302018,0.009327938,399191688
152,2024-02-03_02:04:18,1706925753 ,1706925858402091,1706925753250 ,1706925858402 ,2299,525771250,1,-0.000352933,-8.82E-05,0.000176454,-0.006611697,-0.001882476,0.004078203,245034951
153,2024-02-03_02:04:18,1706925753 ,1706925858402857,1706925753260 ,1706925858403 ,2299,525771260,2,-0.000541249,0.000193111,0.000178302,-0.010363938,-0.009669606,0.001578618,619310190
154,2024-02-03_02:04:18,1706925753 ,1706925858403304,1706925753270 ,1706925858403 ,2299,525771270,1,-0.000122679,0.000164076,4.4488860175e-05,-0.010997975,-0.00254489,0.003362125,3414826066
155,2024-02-03_02:04:18,1706925753 ,1706925858403765,1706925753280 ,1706925858404 ,2299,525771280,1,-0.000171979,7.97387324134e-05,6.267880845699999e-05,-0.012145707,-0.000493791,0.001377769,2926148014
156,2024-02-03_02:04:18,1706925753 ,1706925858404465,1706925753290 ,1706925858404 ,2299,525771290,1,-0.000272231,-1.11E-06,7.6737510221e-05,-0.008471976,-0.001611513,-0.004024331,2821434391
157,2024-02-03_02:04:18,1706925753 ,1706925858406149,1706925753300 ,1706925858406 ,2299,525771300,2,-0.000338284,2.67435942262e-05,0.000134418,-0.004232646,-0.007129344,-0.01360409,1574806012
158,2024-02-03_02:04:18,1706925753 ,1706925858406679,1706925753310 ,1706925858407 ,2299,525771310,1,-4.17E-06,9.68203100129e-05,3.27702818304e-05,-0.000764151,-0.003252038,-0.003788765,24440633
159,2024-02-03_02:04:18,1706925753 ,1706925858407168,1706925753320 ,1706925858407 ,2299,525771320,1,7.447156699500001e-05,0.000110264,1.98556678157e-05,-0.002757084,-0.003641404,-0.002962937,2035353104
160,2024-02-03_02:04:18,1706925753 ,1706925858407650,1706925753330 ,1706925858408 ,2299,525771330,1,5.04000758133e-05,6.46514055393e-05,2.77545401224e-05,-0.003596649,-0.001265803,-0.00087214,3541123963
161,2024-02-03_02:04:18,1706925753 ,1706925858408387,1706925753340 ,1706925858408 ,2299,525771340,2,-0.000193171,-7.35E-05,0.00012359,-0.001427295,-0.005289431,-0.003932728,3524022825
162,2024-02-03_02:04:18,1706925753 ,1706925858408990,1706925753350 ,1706925858409 ,2299,525771350,1,3.42874426279e-05,-9.12E-05,7.20799567139e-05,0.001921467,-0.003656022,-0.002384429,3099841358
163,2024-02-03_02:04:18,1706925753 ,1706925858409488,1706925753360 ,1706925858409 ,2299,525771360,1,8.4762349403e-05,-0.000118822,8.01744402832e-05,0.002312162,-0.002041855,-0.001060642,1370470878
164,2024-02-03_02:04:18,1706925753 ,1706925858409943,1706925753370 ,1706925858410 ,2299,525771370,1,4.18751998771e-05,-0.000143425,8.84726956707e-05,0.002590023,-0.002037825,-0.001665399,1109605628
165,2024-02-03_02:04:18,1706925753 ,1706925858410634,1706925753380 ,1706925858411 ,2299,525771380,2,0.000120196,-0.000359993,0.000180919,0.003970016,-0.005453714,-0.008098876,3470842038
166,2024-02-03_02:04:18,1706925753 ,1706925858411116,1706925753390 ,1706925858411 ,2299,525771390,1,0.000126799,-0.000250414,0.00011229,0.001355717,-0.002159116,-0.004558671,1027092714
167,2024-02-03_02:04:18,1706925753 ,1706925858412642,1706925753400 ,1706925858413 ,2299,525771400,1,0.000175753,-0.000292595,0.000129701,0.001636466,-0.002764427,-0.005273386,3017648128
168,2024-02-03_02:04:18,1706925753 ,1706925858413211,1706925753410 ,1706925858413 ,2299,525771410,1,0.000219807,-0.000311291,0.000135221,0.002198796,-0.002876689,-0.005360827,592103221
169,2024-02-03_02:04:18,1706925753 ,1706925858414072,1706925753420 ,1706925858414 ,2299,525771420,2,0.000480267,-0.000607802,0.00026373,0.004217298,-0.004993086,-0.008266463,2099019851
170,2024-02-03_02:04:18,1706925753 ,1706925858414542,1706925753430 ,1706925858415 ,2299,525771430,1,0.000243035,-0.000312989,0.000138029,0.000612646,-0.002243248,-0.00449373,1478902973
171,2024-02-03_02:04:18,1706925753 ,1706925858415075,1706925753440 ,1706925858415 ,2299,525771440,1,0.000285741,-0.000331119,0.000148179,-0.000150986,-0.002786327,-0.005222279,3147160777
172,2024-02-03_02:04:18,1706925753 ,1706925858415454,1706925753450 ,1706925858415 ,2299,525771450,1,0.000318852,-0.000336753,0.000152793,-0.000235177,-0.002494001,-0.004105185,189429963
173,2024-02-03_02:04:18,1706925753 ,1706925858416038,1706925753460 ,1706925858416 ,2299,525771460,2,0.000595984,-0.000632033,0.000298744,0.000947747,-0.005104005,-0.00478422,2203557986
174,2024-02-03_02:04:18,1706925753 ,1706925858416428,1706925753470 ,1706925858416 ,2299,525771470,1,0.000315719,-0.000254751,0.000133026,0.000217754,-0.003090221,-0.002485933,168715966
175,2024-02-03_02:04:18,1706925753 ,1706925858416860,1706925753480 ,1706925858417 ,2299,525771480,1,0.000344046,-0.000214794,0.000124313,-0.000769368,-0.002323104,-0.002468966,983093864
176,2024-02-03_02:04:18,1706925753 ,1706925858417278,1706925753490 ,1706925858417 ,2299,525771490,1,0.000338058,-0.000184182,0.000120411,-0.001284672,-0.002280167,-0.00272907,2648393257
177,2024-02-03_02:04:18,1706925754 ,1706925858418209,1706925753500 ,1706925858418 ,2299,525771500,2,0.000640959,-0.000252535,0.000229417,-0.002331223,-0.004208921,-0.003883498,2169869015
178,2024-02-03_02:04:18,1706925754 ,1706925858418679,1706925753510 ,1706925858419 ,2299,525771510,1,0.000305417,-5.30E-05,0.000106107,-0.000207685,-0.002720879,-0.000920622,2458477364
179,2024-02-03_02:04:18,1706925754 ,1706925858419311,1706925753520 ,1706925858419 ,2299,525771520,1,0.000319885,-4.44E-06,9.66878966318e-05,-0.000113889,-0.003069475,-0.000493786,141047682
180,2024-02-03_02:04:18,1706925754 ,1706925858419864,1706925753530 ,1706925858420 ,2299,525771530,1,0.000308934,3.39332701697e-05,9.06426114636e-05,-0.000321859,-0.001663682,0.000791838,3272595397
181,2024-02-03_02:04:18,1706925754 ,1706925858420811,1706925753540 ,1706925858421 ,2299,525771540,2,0.000494072,0.000176601,0.000165451,0.000511044,-0.004414961,0.000259862,1909455247
182,2024-02-03_02:04:18,1706925754 ,1706925858421338,1706925753550 ,1706925858421 ,2299,525771550,1,0.000255285,0.000127757,6.53294954107e-05,0.000198274,-0.002844412,0.001471342,2551902830
183,2024-02-03_02:04:18,1706925754 ,1706925858421903,1706925753560 ,1706925858422 ,2299,525771560,1,0.00024625,0.000132449,6.19941903373e-05,-7.18E-05,-0.002161906,0.003321248,2823090765
184,2024-02-03_02:04:18,1706925754 ,1706925858422524,1706925753570 ,1706925858423 ,2299,525771570,1,0.000199551,0.000131144,6.00438342734e-05,0.000266537,-0.001845648,0.002823003,2376701297
185,2024-02-03_02:04:18,1706925754 ,1706925858423332,1706925753580 ,1706925858423 ,2299,525771580,2,0.000272678,0.000226918,0.000119262,0.001161979,-0.004457786,0.002724569,783461267
186,2024-02-03_02:04:18,1706925754 ,1706925858423849,1706925753590 ,1706925858424 ,2299,525771590,1,0.000151538,0.000113851,5.14055180603e-05,0.001921534,-0.003007188,0.00155058,3435309985
187,2024-02-03_02:04:18,1706925754 ,1706925858424733,1706925753600 ,1706925858425 ,2299,525771600,1,0.000152755,0.000134936,3.93865578304e-05,0.001701749,-0.002877983,0.00221069,2346120729
188,2024-02-03_02:04:18,1706925754 ,1706925858425134,1706925753610 ,1706925858425 ,2299,525771610,1,0.000137313,0.000129189,3.91223090087e-05,0.000637407,-0.001649247,0.002991923,408218182
189,2024-02-03_02:04:18,1706925754 ,1706925858425728,1706925753620 ,1706925858426 ,2299,525771620,2,0.000160381,0.000190776,9.48092321143e-05,-0.00025482,-0.004731217,0.002944708,3987004439
190,2024-02-03_02:04:18,1706925754 ,1706925858426296,1706925753630 ,1706925858426 ,2299,525771630,1,9.23542899874e-05,6.94945014346e-05,4.81216704884e-05,0.000986646,-0.002482005,0.001661833,3597873958
191,2024-02-03_02:04:18,1706925754 ,1706925858426854,1706925753640 ,1706925858427 ,2299,525771640,1,8.55004423379e-05,7.82876676736e-05,4.5759833633e-05,0.001290583,-0.002344879,0.002194909,892833717
192,2024-02-03_02:04:18,1706925754 ,1706925858427642,1706925753650 ,1706925858428 ,2299,525771650,1,7.53355415543e-05,8.55122629037e-05,4.43849269872e-05,0.000815532,-0.002315862,0.002655759,876412196
193,2024-02-03_02:04:18,1706925754 ,1706925858428649,1706925753660 ,1706925858429 ,2299,525771660,2,7.07413174593e-05,0.000170023,8.47659711151e-05,-0.00067646,-0.004751792,0.005923501,1603496328
194,2024-02-03_02:04:18,1706925754 ,1706925858429237,1706925753670 ,1706925858429 ,2299,525771670,1,2.0878389341e-06,8.52552445524e-05,4.16828029699e-05,-0.000764975,-0.002169583,0.002563048,3545735708
195,2024-02-03_02:04:18,1706925754 ,1706925858429812,1706925753680 ,1706925858430 ,2299,525771680,1,1.494434311e-07,7.82314093248e-05,4.3379780656e-05,-0.000634006,-0.00183655,0.002482971,132724885
196,2024-02-03_02:04:18,1706925754 ,1706925858430330,1706925753690 ,1706925858430 ,2299,525771690,1,-3.84E-05,7.67437423985e-05,4.79391676922e-05,-0.000309479,-0.002165926,0.001909712,4187376089
197,2024-02-03_02:04:18,1706925754 ,1706925858431493,1706925753700 ,1706925858431 ,2299,525771700,2,-6.20E-05,0.000169138,9.24810526973e-05,-0.001362304,-0.005399308,0.005481831,2513565012
198,2024-02-03_02:04:18,1706925754 ,1706925858431906,1706925753710 ,1706925858432 ,2299,525771710,1,-6.03E-05,9.28748692559e-05,3.74887808272e-05,-0.000290623,-0.002009243,0.002942135,1057823923
199,2024-02-03_02:04:18,1706925754 ,1706925858432434,1706925753720 ,1706925858432 ,2299,525771720,1,-8.69E-05,8.41691579536e-05,3.85798256441e-05,-0.000888307,-0.002244454,0.001580846,979067922
200,2024-02-03_02:04:18,1706925754 ,1706925858432833,1706925753730 ,1706925858433 ,2299,525771730,1,-0.000102724,6.89140411624e-05,4.54677782103e-05,-0.000695746,-0.002721635,0.000970128,200600711
201,2024-02-03_02:04:18,1706925754 ,1706925858433404,1706925753740 ,1706925858433 ,2299,525771740,2,-0.000165088,0.000133653,9.99198914803e-05,-0.001346825,-0.004784873,0.002433765,1236743469
202,2024-02-03_02:04:18,1706925754 ,1706925858433854,1706925753750 ,1706925858434 ,2299,525771750,1,-9.17E-05,7.36586759462e-05,4.22605072346e-05,-0.000846001,-0.002669995,0.001180224,3166962599
203,2024-02-03_02:04:18,1706925754 ,1706925858434293,1706925753760 ,1706925858434 ,2299,525771760,1,-8.47E-05,6.36093670522e-05,4.70447647953e-05,-0.000602141,-0.002837002,0.001550019,2266424258
204,2024-02-03_02:04:18,1706925754 ,1706925858434812,1706925753770 ,1706925858435 ,2299,525771770,1,-9.32E-05,6.39868450317e-05,4.78050072939e-05,-0.000679418,-0.002867111,0.00218503,2915563725
205,2024-02-03_02:04:18,1706925754 ,1706925858435693,1706925753780 ,1706925858436 ,2299,525771780,2,-0.000183712,0.000125526,9.62925844743e-05,-0.001497187,-0.005128993,0.005198718,198309499
206,2024-02-03_02:04:18,1706925754 ,1706925858436289,1706925753790 ,1706925858436 ,2299,525771790,1,-0.000101697,5.24747855762e-05,5.65008737872e-05,-0.000548235,-0.002968277,0.002149579,4268585284
207,2024-02-03_02:04:18,1706925754 ,1706925858437338,1706925753800 ,1706925858437 ,2299,525771800,1,-0.00010912,3.37350566566e-05,6.17688554866e-05,-0.000414932,-0.002147932,0.002615631,456926289
208,2024-02-03_02:04:18,1706925754 ,1706925858437814,1706925753810 ,1706925858438 ,2299,525771810,1,-0.000126803,2.81778531565e-05,5.50825395915e-05,0.000353054,-0.002057775,0.002430299,3902474643
209,2024-02-03_02:04:18,1706925754 ,1706925858438364,1706925753820 ,1706925858438 ,2299,525771820,2,-0.000274513,5.29475598574e-05,0.000103972,-0.001038935,-0.00553252,0.003998318,783737824
210,2024-02-03_02:04:18,1706925754 ,1706925858438830,1706925753830 ,1706925858439 ,2299,525771830,1,-0.000138068,6.0641521508e-06,6.58606943281e-05,-0.000838179,-0.002159234,0.002323196,1700667037
211,2024-02-03_02:04:18,1706925754 ,1706925858439234,1706925753840 ,1706925858439 ,2299,525771840,1,-0.000124935,4.0268368512e-06,6.04779111194e-05,-0.000776187,-0.002114715,0.002160499,243692193
212,2024-02-03_02:04:18,1706925754 ,1706925858439810,1706925753850 ,1706925858440 ,2299,525771850,1,-0.000144092,-1.48E-05,6.23621341407e-05,-0.00057498,-0.002917656,0.00169987,453424514
213,2024-02-03_02:04:18,1706925754 ,1706925858440474,1706925753860 ,1706925858440 ,2299,525771860,2,-0.000325004,-6.22E-05,0.000127505,0.000543476,-0.004932361,0.004741315,1758422916
214,2024-02-03_02:04:18,1706925754 ,1706925858440916,1706925753870 ,1706925858441 ,2299,525771870,1,-0.000191156,-3.07E-05,6.07144190269e-05,-0.000731416,-0.002455784,0.002034739,2041172062
215,2024-02-03_02:04:18,1706925754 ,1706925858441342,1706925753880 ,1706925858441 ,2299,525771880,1,-0.000207141,-4.24E-05,6.24733900983e-05,-0.000406496,-0.001873243,0.002549639,2477651614
216,2024-02-03_02:04:18,1706925754 ,1706925858441855,1706925753890 ,1706925858442 ,2299,525771890,1,-0.000227576,-4.10E-05,6.22036159856e-05,-0.000304225,-0.002644543,0.001900089,2022586770
217,2024-02-03_02:04:18,1706925754 ,1706925858442850,1706925753900 ,1706925858443 ,2299,525771900,2,-0.00046277,-0.000113871,0.000122674,-0.001812085,-0.005087716,0.003034693,40103176
218,2024-02-03_02:04:18,1706925754 ,1706925858443522,1706925753910 ,1706925858444 ,2299,525771910,1,-0.000259128,-5.65E-05,5.98875506561e-05,-0.000299108,-0.001939036,0.001834543,2021362477
219,2024-02-03_02:04:18,1706925754 ,1706925858444243,1706925753920 ,1706925858444 ,2299,525771920,1,-0.000262926,-4.42E-05,6.26359409888e-05,-0.00031193,-0.002638343,0.000765924,3272023416
220,2024-02-03_02:04:18,1706925754 ,1706925858444861,1706925753930 ,1706925858445 ,2299,525771930,1,-0.000264331,-2.89E-05,5.83011629823e-05,-0.000328438,-0.003268255,-0.000295673,3189954467
221,2024-02-03_02:04:18,1706925754 ,1706925858445536,1706925753940 ,1706925858446 ,2299,525771940,2,-0.000528633,6.9095810092e-06,0.000103312,-0.001150056,-0.004487209,-0.000705351,4064504912
222,2024-02-03_02:04:18,1706925754 ,1706925858446067,1706925753950 ,1706925858446 ,2299,525771950,1,-0.000290933,4.6415912695e-06,6.27205051557e-05,-0.000557671,-0.002475119,-0.00120139,1781418955
223,2024-02-03_02:04:18,1706925754 ,1706925858446419,1706925753960 ,1706925858446 ,2299,525771960,1,-0.000275766,1.43002876634e-05,6.56612630887e-05,-6.59E-05,-0.002454928,-0.00179656,718531707
224,2024-02-03_02:04:18,1706925754 ,1706925858446858,1706925753970 ,1706925858447 ,2299,525771970,1,-0.000252606,2.87821355164e-05,6.34625373303e-05,-0.000236841,-0.002189929,-0.002323858,603264215
225,2024-02-03_02:04:18,1706925754 ,1706925858447504,1706925753980 ,1706925858448 ,2299,525771980,2,-0.000486901,0.000107901,0.000111531,0.000376468,-0.005262338,-0.004760377,1950049673
226,2024-02-03_02:04:18,1706925754 ,1706925858447858,1706925753990 ,1706925858448 ,2299,525771990,1,-0.000215808,8.77881946371e-05,4.60279693689e-05,9.06348536597e-05,-0.002528869,-0.002598696,1888616076
227,2024-02-03_02:04:18,1706925754 ,1706925858448652,1706925754000 ,1706925858449 ,2299,525772000,1,-0.000209416,8.58768609294e-05,4.69701180568e-05,-0.00021938,-0.002874915,-0.002866748,3689199723
228,2024-02-03_02:04:18,1706925754 ,1706925858449082,1706925754010 ,1706925858449 ,2299,525772010,1,-0.00019663,7.56751568437e-05,4.44637555478e-05,-0.000259681,-0.002409514,-0.002129402,2122590373
229,2024-02-03_02:04:18,1706925754 ,1706925858449684,1706925754020 ,1706925858450 ,2299,525772020,2,-0.000393851,0.000120446,8.31571397393e-05,-0.000116845,-0.004118247,-0.005200906,1345365644
230,2024-02-03_02:04:18,1706925754 ,1706925858450255,1706925754030 ,1706925858450 ,2299,525772030,1,-0.00016598,4.92996908778e-05,4.35259815962e-05,0.000464841,-0.002457128,-0.002234915,1278112226
231,2024-02-03_02:04:18,1706925754 ,1706925858450646,1706925754040 ,1706925858451 ,2299,525772040,1,-0.000165481,5.72939842537e-05,3.99366660315e-05,0.000499101,-0.002724486,-0.0017641,4291681129
232,2024-02-03_02:04:18,1706925754 ,1706925858451041,1706925754050 ,1706925858451 ,2299,525772050,1,-0.00014818,6.14423286014e-05,3.19704777399e-05,0.000462884,-0.002143884,-0.001788715,2716096077
233,2024-02-03_02:04:18,1706925754 ,1706925858452329,1706925754060 ,1706925858452 ,2299,525772060,2,-0.000307774,0.00011778,6.78596003815e-05,-0.000644597,-0.004510304,-0.005390027,1277605592
234,2024-02-03_02:04:18,1706925754 ,1706925858452867,1706925754070 ,1706925858453 ,2299,525772070,1,-0.000138621,3.99772579894e-05,4.38415005522e-05,0.000231049,-0.002210783,-0.002873333,2906296288
235,2024-02-03_02:04:18,1706925754 ,1706925858453272,1706925754080 ,1706925858453 ,2299,525772080,1,-0.000119305,5.86818994352e-05,3.53634184592e-05,0.00093757,-0.00190482,-0.002711808,867842484
236,2024-02-03_02:04:18,1706925754 ,1706925858453724,1706925754090 ,1706925858454 ,2299,525772090,1,-9.74E-05,8.00807282842e-05,2.64683945126e-05,0.000618791,-0.001717032,-0.002582328,1819534726
237,2024-02-03_02:04:18,1706925754 ,1706925858454729,1706925754100 ,1706925858455 ,2299,525772100,2,-0.000212726,0.000162409,5.24627995402e-05,0.000555431,-0.003388266,-0.006603155,1365699553
238,2024-02-03_02:04:18,1706925754 ,1706925858455141,1706925754110 ,1706925858455 ,2299,525772110,1,-7.04E-05,6.51427971106e-05,3.37987118121e-05,-0.000172024,-0.002209163,-0.003472469,2416711323
239,2024-02-03_02:04:18,1706925754 ,1706925858455535,1706925754120 ,1706925858456 ,2299,525772120,1,-6.74E-05,3.75060012426e-05,4.65702997904e-05,7.63576510155e-05,-0.00127972,-0.002790301,2659212162
240,2024-02-03_02:04:18,1706925754 ,1706925858456155,1706925754130 ,1706925858456 ,2299,525772130,1,-8.33E-05,3.77293989884e-05,4.80225185884e-05,0.001055808,-0.001818404,-0.003647825,1625684098
241,2024-02-03_02:04:18,1706925754 ,1706925858456832,1706925754140 ,1706925858457 ,2299,525772140,2,-0.000120127,9.64659670376e-05,0.000100192,0.000503993,-0.003628351,-0.005621038,3852250264
242,2024-02-03_02:04:18,1706925754 ,1706925858457045,1706925754150 ,1706925858457 ,2299,525772150,1,-6.40E-05,3.68012353936e-05,5.62378922788e-05,0.000210948,-0.001951102,-0.002095927,339816422
243,2024-02-03_02:04:18,1706925754 ,1706925858458125,1706925754160 ,1706925858458 ,2299,525772160,1,-4.33E-05,3.93819292906e-05,5.45882837201e-05,4.58973376509e-05,-0.001879191,-0.003167709,3074876169
244,2024-02-03_02:04:18,1706925754 ,1706925858458137,1706925754170 ,1706925858458 ,2299,525772170,1,-4.15E-05,2.30203203837e-05,5.50383475933e-05,-0.00023066,-0.001276913,-0.002426712,1836741815
245,2024-02-03_02:04:18,1706925754 ,1706925858458447,1706925754180 ,1706925858458 ,2299,525772180,2,-0.000109649,4.019637763e-07,0.000116507,-0.000372217,-0.004420937,-0.002660204,1691623404
246,2024-02-03_02:04:18,1706925754 ,1706925858458904,1706925754190 ,1706925858459 ,2299,525772190,1,-3.48E-05,-1.07E-05,5.73697580176e-05,-0.000718996,-0.00161133,-0.000613414,2903846782
247,2024-02-03_02:04:18,1706925754 ,1706925858460337,1706925754200 ,1706925858460 ,2299,525772200,1,-4.52E-05,-2.64E-05,6.44512888265e-05,-0.000458623,-0.000776696,-0.001110031,2077421432
248,2024-02-03_02:04:18,1706925754 ,1706925858460910,1706925754210 ,1706925858461 ,2299,525772210,1,-8.42E-05,-3.75E-05,7.17414467393e-05,-0.000224088,-0.001964715,-0.002655832,3863538073
249,2024-02-03_02:04:18,1706925754 ,1706925858461540,1706925754220 ,1706925858462 ,2299,525772220,2,-4.33E-05,-5.17E-05,0.000112641,-0.002140041,-0.004174771,-0.002287625,1838108718
250,2024-02-03_02:04:18,1706925754 ,1706925858461995,1706925754230 ,1706925858462 ,2299,525772230,1,2.48304779533e-05,-3.33E-05,4.0547068119e-05,-0.002508187,-0.001130688,0.001844858,3877488909
251,2024-02-03_02:04:18,1706925754 ,1706925858462415,1706925754240 ,1706925858462 ,2299,525772240,1,-1.99E-05,-7.08E-05,5.38143678425e-05,-0.002217664,0.000148551,0.002525015,2984601158
252,2024-02-03_02:04:18,1706925754 ,1706925858462881,1706925754250 ,1706925858463 ,2299,525772250,1,-0.000104698,-7.47E-05,6.2124756321e-05,-0.000293811,-0.000775213,-0.001604012,3583170878
253,2024-02-03_02:04:18,1706925754 ,1706925858463458,1706925754260 ,1706925858463 ,2299,525772260,2,9.9388227609e-06,-4.10E-05,4.69038064274e-05,-0.001357301,-0.004778717,-0.005055412,1700481999
254,2024-02-03_02:04:18,1706925754 ,1706925858463913,1706925754270 ,1706925858464 ,2299,525772270,1,1.8730146029e-05,-2.39E-05,2.17579046021e-05,-0.002533456,-0.000232405,0.00161285,2876978595
255,2024-02-03_02:04:18,1706925754 ,1706925858464446,1706925754280 ,1706925858464 ,2299,525772280,1,-4.30E-05,-2.98E-05,2.49631480428e-05,-0.001608147,-0.001349577,-0.000851132,4039603485
256,2024-02-03_02:04:18,1706925754 ,1706925858464818,1706925754290 ,1706925858465 ,2299,525772290,1,-3.86E-05,-2.96E-05,2.2409818439e-05,-0.001657141,-0.001741803,-0.001498337,3784355354
257,2024-02-03_02:04:18,1706925754 ,1706925858465743,1706925754300 ,1706925858466 ,2299,525772300,2,6.11330711066e-05,-5.72E-05,5.43722843603e-05,0.000365447,-0.004156181,-0.003757253,696990611
258,2024-02-03_02:04:18,1706925754 ,1706925858466227,1706925754310 ,1706925858466 ,2299,525772310,1,0.000114133,2.68001303137e-05,8.1499451267e-06,0.000177025,-0.001967941,-0.000961544,2052120194
259,2024-02-03_02:04:18,1706925754 ,1706925858466655,1706925754320 ,1706925858467 ,2299,525772320,1,0.000115886,5.56276897832e-05,-2.15E-06,-0.00124926,0.000222301,0.00093609,2714885645
260,2024-02-03_02:04:18,1706925754 ,1706925858467109,1706925754330 ,1706925858467 ,2299,525772330,1,2.95550912122e-05,4.7387066921000004e-05,5.6534784186e-06,-0.001197169,-0.000957259,-0.000909207,4179331043
261,2024-02-03_02:04:18,1706925754 ,1706925858468095,1706925754340 ,1706925858468 ,2299,525772340,2,0.000156143,4.43354054876e-05,3.51173582302e-05,-0.000816838,-0.003144716,-0.003021769,3650856968
262,2024-02-03_02:04:18,1706925754 ,1706925858468745,1706925754350 ,1706925858469 ,2299,525772350,1,0.000107225,3.89643003049e-05,1.86234273425e-05,0.001022022,-0.001417655,-0.000343021,2780113767
263,2024-02-03_02:04:18,1706925754 ,1706925858469127,1706925754360 ,1706925858469 ,2299,525772360,1,0.0001244,7.70817121804e-05,8.0595133026e-06,0.000779837,-0.001611294,0.000246112,4018332706
264,2024-02-03_02:04:18,1706925754 ,1706925858469675,1706925754370 ,1706925858470 ,2299,525772370,1,0.000133988,9.71929567636e-05,4.651969175e-06,-0.000145644,-0.001431652,0.000699394,335376805
265,2024-02-03_02:04:18,1706925754 ,1706925858470340,1706925754380 ,1706925858470 ,2299,525772380,2,0.00026056,0.000184183,2.40257050744e-05,-0.000616715,-0.002212783,0.001394368,2014869757
266,2024-02-03_02:04:18,1706925754 ,1706925858470901,1706925754390 ,1706925858471 ,2299,525772390,1,0.00013547,7.98748312091e-05,2.44883266684e-05,0.000395651,-0.001044607,-0.000147005,787623109
267,2024-02-03_02:04:18,1706925754 ,1706925858471893,1706925754400 ,1706925858472 ,2299,525772400,1,0.000142592,8.62656804418e-05,2.33744747534e-05,0.001263373,-0.000911144,8.70329332593e-05,780751306
268,2024-02-03_02:04:18,1706925754 ,1706925858472543,1706925754410 ,1706925858473 ,2299,525772410,1,0.000121061,0.00011809,1.2016302080999998e-05,0.000983789,-0.000685921,0.000872018,1794709293
269,2024-02-03_02:04:18,1706925754 ,1706925858473285,1706925754420 ,1706925858473 ,2299,525772420,2,0.00026245,0.000251618,3.0274959331e-05,0.001791499,-0.002923559,0.000733611,888659968
270,2024-02-03_02:04:18,1706925754 ,1706925858473679,1706925754430 ,1706925858474 ,2299,525772430,1,0.000146177,0.000130804,2.40416272921e-05,0.00057508,-0.00096372,0.000349439,1620706869
271,2024-02-03_02:04:18,1706925754 ,1706925858474092,1706925754440 ,1706925858474 ,2299,525772440,1,0.000127152,0.000132592,3.36845202394e-05,0.001216691,-0.000937598,2.53714576628e-05,2317648107
272,2024-02-03_02:04:18,1706925754 ,1706925858474637,1706925754450 ,1706925858475 ,2299,525772450,1,0.000140547,0.000140595,3.48368498508e-05,0.001705431,-0.001456355,0.000634794,847861005
273,2024-02-03_02:04:18,1706925754 ,1706925858475306,1706925754460 ,1706925858475 ,2299,525772460,2,0.0003084,0.00031716,6.44799181991e-05,0.003048275,-0.001983577,0.002380238,777147478
274,2024-02-03_02:04:18,1706925754 ,1706925858475823,1706925754470 ,1706925858476 ,2299,525772470,1,0.000134034,0.000157303,3.00608875007e-05,0.000898724,-0.000172425,-0.000203998,3936791684
275,2024-02-03_02:04:18,1706925754 ,1706925858476748,1706925754480 ,1706925858477 ,2299,525772480,1,0.000102609,0.000148995,3.85172721349e-05,0.000546204,-3.13E-05,-0.001330953,3068090090
276,2024-02-03_02:04:18,1706925754 ,1706925858477049,1706925754490 ,1706925858477 ,2299,525772490,1,0.000118571,0.000137084,4.73516183093e-05,0.001459697,-4.22E-05,-0.001074941,1031580322
277,2024-02-03_02:04:18,1706925755 ,1706925858478035,1706925754500 ,1706925858478 ,2299,525772500,2,0.000283136,0.000293002,9.12184250059e-05,0.003178408,0.00057242,0.002296342,2072259998
278,2024-02-03_02:04:18,1706925755 ,1706925858478443,1706925754510 ,1706925858478 ,2299,525772510,1,0.000102546,0.000159176,4.5478297801000006e-05,0.00132466,0.00049687,0.000483883,4084518411
279,2024-02-03_02:04:18,1706925755 ,1706925858478813,1706925754520 ,1706925858479 ,2299,525772520,1,9.52843685082e-05,0.00016847,4.68943741315e-05,0.001038982,0.000757814,-0.000334193,1627564886
280,2024-02-03_02:04:18,1706925755 ,1706925858479359,1706925754530 ,1706925858479 ,2299,525772530,1,9.869977188500001e-05,0.000167841,5.11797899794e-05,-6.63E-05,-0.000273305,-0.001223245,1491054519
281,2024-02-03_02:04:18,1706925755 ,1706925858480037,1706925754540 ,1706925858480 ,2299,525772540,2,0.000190042,0.00028095,0.000125299,-0.000829309,-0.001113471,6.48009709642e-05,2128513834
282,2024-02-03_02:04:18,1706925755 ,1706925858480519,1706925754550 ,1706925858481 ,2299,525772550,1,5.06108488632e-05,0.000137202,5.63197325466e-05,0.000498335,-0.001055079,0.00036425,1469154609
283,2024-02-03_02:04:18,1706925755 ,1706925858481051,1706925754560 ,1706925858481 ,2299,525772560,1,5.67159445078e-05,0.000153742,4.19568564093e-05,0.000229908,-0.001922646,-0.000422604,2524707794
284,2024-02-03_02:04:18,1706925755 ,1706925858481446,1706925754570 ,1706925858481 ,2299,525772570,1,6.73613651758e-05,0.000150739,3.77060124974e-05,-0.000795054,-0.001816546,-0.000517135,330802721
285,2024-02-03_02:04:18,1706925755 ,1706925858481994,1706925754580 ,1706925858482 ,2299,525772580,2,0.000200592,0.000249675,7.06888444565e-05,-0.003131035,-0.001889222,-0.001629574,3864224132
286,2024-02-03_02:04:18,1706925755 ,1706925858482390,1706925754590 ,1706925858482 ,2299,525772590,1,0.000103195,8.13372263726e-05,2.91361187383e-05,-0.001889332,2.07711585546e-05,-0.000428267,2988007391
287,2024-02-03_02:04:18,1706925755 ,1706925858483637,1706925754600 ,1706925858484 ,2299,525772600,1,7.95275673753e-05,5.99272875628e-05,2.50167781934e-05,-0.001675896,-0.001025655,-0.001169361,3720780928
288,2024-02-03_02:04:18,1706925755 ,1706925858484554,1706925754610 ,1706925858485 ,2299,525772610,1,0.000108791,4.1170720907e-05,2.28318263067e-05,-0.001537232,4.75616711458e-05,-0.000229298,2551458905
289,2024-02-03_02:04:18,1706925755 ,1706925858485449,1706925754620 ,1706925858485 ,2299,525772620,2,0.000209605,6.65505283829e-05,3.87814110443e-05,-0.002890225,-0.001609284,-0.002811793,3224752861
290,2024-02-03_02:04:18,1706925755 ,1706925858485900,1706925754630 ,1706925858486 ,2299,525772630,1,0.000142629,3.55561591041e-05,1.01259963391e-05,-0.001232856,-0.001287284,3.10445891683e-05,4002384275
291,2024-02-03_02:04:18,1706925755 ,1706925858486336,1706925754640 ,1706925858486 ,2299,525772640,1,0.000125452,5.10394239145e-05,1.9332523047e-06,-0.001261931,-0.000215858,0.001795356,1054900732
292,2024-02-03_02:04:18,1706925755 ,1706925858486730,1706925754650 ,1706925858487 ,2299,525772650,1,0.000117372,6.11024142132e-05,-4.99E-06,-0.001639395,0.000290426,0.001909204,3908718921
293,2024-02-03_02:04:18,1706925755 ,1706925858487308,1706925754660 ,1706925858487 ,2299,525772660,2,0.000192457,9.00548679191e-05,1.37744175374e-05,-0.001778545,-0.001247146,0.000206977,2682139870
294,2024-02-03_02:04:18,1706925755 ,1706925858487690,1706925754670 ,1706925858488 ,2299,525772670,1,0.000113164,5.85523481662e-05,4.1170978262e-06,0.000248433,-0.000623386,0.000677215,341543568
295,2024-02-03_02:04:18,1706925755 ,1706925858488133,1706925754680 ,1706925858488 ,2299,525772680,1,9.43319380517e-05,9.10157919025e-05,-2.81E-06,-0.000379821,-0.000218188,0.000664923,2651137037
296,2024-02-03_02:04:18,1706925755 ,1706925858488646,1706925754690 ,1706925858489 ,2299,525772690,1,7.37313325729e-05,8.79288733859e-05,4.759701965e-07,-0.000431602,-0.000531272,0.000379757,1968166453
297,2024-02-03_02:04:18,1706925755 ,1706925858489836,1706925754700 ,1706925858490 ,2299,525772700,2,0.00015588,0.000124705,2.0055690185e-05,-0.000843252,-0.001818883,0.001415609,99148116
298,2024-02-03_02:04:18,1706925755 ,1706925858490363,1706925754710 ,1706925858490 ,2299,525772710,1,0.000110331,4.19047768704e-05,9.0800259077e-06,0.000368825,-0.000486762,0.001607727,3844662706
299,2024-02-03_02:04:18,1706925755 ,1706925858490867,1706925754720 ,1706925858491 ,2299,525772720,1,9.59069761648e-05,4.70520850297e-05,1.54244838763e-05,0.000663312,-0.000824944,0.001178441,2447313171
300,2024-02-03_02:04:18,1706925755 ,1706925858491645,1706925754730 ,1706925858492 ,2299,525772730,1,0.000101277,4.92294482499e-05,1.86139633253e-05,0.000694686,-0.000802665,0.001783358,540280203
301,2024-02-03_02:04:18,1706925755 ,1706925858492643,1706925754740 ,1706925858493 ,2299,525772740,2,0.000187488,0.000123667,4.46285589637e-05,-7.14E-05,-0.001783951,0.00582555,3568746208
302,2024-02-03_02:04:18,1706925755 ,1706925858493169,1706925754750 ,1706925858493 ,2299,525772750,1,5.86461352099e-05,6.03596455121e-05,2.57422079267e-05,-9.17E-05,0.000476849,0.003552167,388929835
303,2024-02-03_02:04:18,1706925755 ,1706925858493685,1706925754760 ,1706925858494 ,2299,525772760,1,6.0878675884e-06,6.86953303043e-05,2.23597554492e-05,9.21009537142e-05,-0.000405978,0.003149296,1000833566
304,2024-02-03_02:04:18,1706925755 ,1706925858494062,1706925754770 ,1706925858494 ,2299,525772770,1,-1.30E-05,9.33456398837e-05,2.3795699440000003e-05,0.000210469,-0.001344609,0.001593214,3420706399
305,2024-02-03_02:04:18,1706925755 ,1706925858494742,1706925754780 ,1706925858495 ,2299,525772780,2,5.45737578042e-05,0.000212876,5.96456169347e-05,0.000709025,-0.001454757,0.006335366,3347685525
306,2024-02-03_02:04:18,1706925755 ,1706925858495234,1706925754790 ,1706925858495 ,2299,525772790,1,-4.76E-06,0.000141555,2.683235862e-05,0.000688046,2.37639634385e-05,0.002780515,977929291
307,2024-02-03_02:04:18,1706925755 ,1706925858496084,1706925754800 ,1706925858496 ,2299,525772800,1,-2.28E-05,0.000165483,1.5618025212999998e-05,0.000826221,-0.000698214,0.00140051,201879588
308,2024-02-03_02:04:18,1706925755 ,1706925858496485,1706925754810 ,1706925858496 ,2299,525772810,1,-2.83E-05,0.000175188,1.42239724981e-05,-6.85E-05,-0.000254524,0.001964348,57712980
309,2024-02-03_02:04:18,1706925755 ,1706925858497037,1706925754820 ,1706925858497 ,2299,525772820,2,-5.46E-05,0.000308971,5.98409967996e-05,-0.000652023,-0.001022955,0.004684724,2611718376
310,2024-02-03_02:04:18,1706925755 ,1706925858497440,1706925754830 ,1706925858497 ,2299,525772830,1,-6.42E-05,0.000154861,2.49340838635e-05,0.001015603,0.000862521,0.003820802,525638441
311,2024-02-03_02:04:18,1706925755 ,1706925858497838,1706925754840 ,1706925858498 ,2299,525772840,1,-0.000133689,0.000172712,2.02681442035e-05,0.001140358,-0.000438302,0.002207199,3692426302
312,2024-02-03_02:04:18,1706925755 ,1706925858498323,1706925754850 ,1706925858498 ,2299,525772850,1,-0.000135963,0.000172169,2.16154023035e-05,0.001090361,-0.000138853,0.001284046,118460461
313,2024-02-03_02:04:18,1706925755 ,1706925858498933,1706925754860 ,1706925858499 ,2299,525772860,2,-0.000246938,0.000345097,2.97584045523e-05,0.001768318,-0.000952702,0.000423985,2549908083
314,2024-02-03_02:04:18,1706925755 ,1706925858499334,1706925754870 ,1706925858499 ,2299,525772870,1,-0.000138721,0.000145809,1.90106941402e-05,0.000539327,-0.000111029,0.001604085,2894149585
315,2024-02-03_02:04:18,1706925755 ,1706925858499718,1706925754880 ,1706925858500 ,2299,525772880,1,-0.000164094,0.000132843,2.64803686179e-05,0.001116676,-0.000284441,0.001543364,1691029661
