Localtime,Receivetime,Week,Seconds,DataCount,PitchRate,RollRate,YawRate,LateralAcc,LongitudinalAcc,VerticalAcc,CrcCheck
2024-02-03_02:04:18,1706925858304502,2299,525769730,1,0.0001632098110772,0.0001586982028939,0.0005921830070516,-0.0043690001595071,-0.0030595124376276,-0.0010489651653226,3060703127
2024-02-03_02:04:18,1706925858305034,2299,525769740,2,0.0002798770083096,0.0003496984097004,0.001191151373696,-0.00881377489864,-0.0045197292626159,-0.0017794159698718,616337621
2024-02-03_02:04:18,1706925858305519,2299,525769750,1,0.0001727736242936,0.0002116181257733,0.0005944817036343,-0.0039539174065494,-0.0030578602745223,-0.0024740874385992,1986830645
2024-02-03_02:04:18,1706925858306043,2299,525769760,1,0.0002650992817311,0.000233079360647,0.000585500777955,-0.0040932608743653,-0.0042334516446367,-0.0020421270329806,3551649551
2024-02-03_02:04:18,1706925858306438,2299,525769770,1,0.0003392276240606,0.0002219714557299,0.0005788536931239,-0.0054114997280576,-0.0035425773662131,0.0025662499236993,799333277
2024-02-03_02:04:18,1706925858307207,2299,525769780,2,0.0004567126413768,0.0003174340940885,0.001180562575935,-0.0108506231757118,-0.0023324438960896,0.0095511759691127,3437417614
2024-02-03_02:04:18,1706925858307675,2299,525769790,1,0.0001052584716885,7.44437441089e-05,0.0006121661096485,-0.0044340742774089,-0.0030440485713994,-0.0001775192569003,3699225498
2024-02-03_02:04:18,1706925858308837,2299,525769800,1,0.0001617937622781,5.48210532522e-05,0.000610271865498,-0.0039848283591259,-0.0036865816266483,0.0003322195672638,777462467
2024-02-03_02:04:18,1706925858309409,2299,525769810,1,0.0002203510553516,3.09440993874e-05,0.0006144367440749,-0.0054143405441706,-0.0025199921975337,0.0033553295844202,1745161401
2024-02-03_02:04:18,1706925858310030,2299,525769820,2,0.0002506440715547,-9.44616519183e-05,0.0012398454064557,-0.0130975084216093,-0.0016939050016962,0.0093673708356431,1814434900
2024-02-03_02:04:18,1706925858310633,2299,525769830,1,5.33316649124e-05,-0.0001615708436628,0.0006109621984479,-0.0074215359991639,-0.0031059768218704,0.0027735311687821,3093575627
2024-02-03_02:04:18,1706925858311121,2299,525769840,1,7.83012077377e-05,-0.0002820828879412,0.0006173805171092,-0.0076169623778216,-0.0025525102991273,0.0038667882305367,1868321607
2024-02-03_02:04:18,1706925858311581,2299,525769850,1,9.31622218204e-05,-0.0004092665674102,0.0006152795905889,-0.0070510391708799,-0.0032598254597734,0.0043331229478705,1510544000
2024-02-03_02:04:18,1706925858312266,2299,525769860,2,-3.04058969914e-05,-0.0011598224504591,0.0011295810414426,-0.0190040488700468,-0.0027714852991959,0.013677078350176,1871351430
2024-02-03_02:04:18,1706925858312693,2299,525769870,1,-0.0002151150981663,-0.000832663387902,0.0005658415535164,-0.0107368239613434,-0.0015548932358294,0.0054924106880465,2753948619
2024-02-03_02:04:18,1706925858313186,2299,525769880,1,-0.0002604866834829,-0.000972486061236,0.0005952045556351,-0.0098941645336898,-0.0030896747267969,0.0012801329706446,1068924917
2024-02-03_02:04:18,1706925858313668,2299,525769890,1,-0.0002126015541555,-0.0010239349018157,0.0005965642794307,-0.0094935486467811,-0.0054544240927242,-0.0014508560417824,1453835327
2024-02-03_02:04:18,1706925858314635,2299,525769900,2,-0.0002480983830823,-0.0018979963177596,0.001066172118126,-0.0195478591438275,-0.0091140655146189,0.0025065608058126,4290540001
2024-02-03_02:04:18,1706925858315028,2299,525769910,1,-0.0001576375733844,-0.0008408636088639,0.0005137821250587,-0.0085424556835297,-0.0033669276092478,0.0010455325700772,4162576801
2024-02-03_02:04:18,1706925858315690,2299,525769920,1,-0.0001591458774737,-0.000725459828646,0.0005162638162703,-0.0077684298525542,-0.0054604524814691,-0.0011515237933492,4238681284
2024-02-03_02:04:18,1706925858316246,2299,525769930,1,-4.67911109364e-05,-0.0006054140542103,0.0004938734072736,-0.0099139538749916,-0.0056277021395604,-0.0009965730307052,3626667530
2024-02-03_02:04:18,1706925858317205,2299,525769940,2,-2.20697255371e-05,-0.0010889744136918,0.0009597202155546,-0.0206334132985021,-0.0017865144239227,0.0042707502663322,1963086994
2024-02-03_02:04:18,1706925858317632,2299,525769950,1,-0.0001800872382862,-0.000413255203154,0.000447351644735,-0.0061721655724241,-0.0011335286519326,-0.000338012857765,3581585430
2024-02-03_02:04:18,1706925858318140,2299,525769960,1,-0.0002189826697691,-0.0003078056765099,0.0004459028710894,-0.0060749259249414,-0.0021915358247635,5.6776731003e-06,1165739655
2024-02-03_02:04:18,1706925858318634,2299,525769970,1,-0.0002148282179222,-0.0001982177986824,0.0004547740686453,-0.00414935320377,-0.0050665850767726,-0.0002516348431494,2850332053
2024-02-03_02:04:18,1706925858319334,2299,525769980,2,-0.0002367988680976,1.91557803035e-05,0.0009327777782119,-0.0017561743407709,-0.0072336108691456,-0.0026969385952493,1876111020
2024-02-03_02:04:18,1706925858319716,2299,525769990,1,-0.0001632262507726,0.0001595200178138,0.0005333154729883,-0.0004379551395772,-0.0019697866694275,-0.0026518285463636,3678746331
2024-02-03_02:04:18,1706925858320628,2299,525770000,1,-0.0001158691189816,0.0002509408073197,0.000552659037866,0.000518577373382,-0.0037518433977553,-0.0023717985667951,3873101044
2024-02-03_02:04:18,1706925858321108,2299,525770010,1,-1.2162598158e-05,0.0003484920367562,0.0005352439654782,0.0007875035530211,-0.0017022491186435,0.0021725905760769,38894799
2024-02-03_02:04:18,1706925858321765,2299,525770020,2,-7.25154873099e-05,0.0008243799109918,0.0010787089987989,0.0061639560433538,-0.0008375622621061,-3.27123459098e-05,290136287
2024-02-03_02:04:18,1706925858322251,2299,525770030,1,-5.88147697461e-05,0.0003154180648571,0.0005973526279878,0.0032107284251933,-0.0022449640180355,-0.0036752327992075,3822967946
2024-02-03_02:04:18,1706925858322631,2299,525770040,1,-6.79429864372e-05,0.0002480052345485,0.0006105433708565,0.0038701685895555,-0.0020940521164969,-0.0005004339973596,2526023110
2024-02-03_02:04:18,1706925858323209,2299,525770050,1,-6.39177673876e-05,0.0001973587182377,0.0006179098296133,0.0045190752650182,-0.0026420292070899,5.80882812118e-05,3571310
2024-02-03_02:04:18,1706925858324424,2299,525770060,2,-0.0001444969875348,0.0002418053412384,0.0012627524335277,0.0093333578155032,-0.0040709334176984,-0.0018084314642633,4001903261
2024-02-03_02:04:18,1706925858324894,2299,525770070,1,-5.50072035058e-05,3.35450698579e-05,0.0006471127955905,0.0016326428617515,-0.0019665052425342,-0.002058183025346,3937214547
2024-02-03_02:04:18,1706925858325331,2299,525770080,1,-2.8897187343e-06,-5.61226937343e-05,0.0006564579483902,0.0009076723301222,-0.0024534426115675,0.0004982293383062,3939731074
2024-02-03_02:04:18,1706925858325762,2299,525770090,1,4.48257995655e-05,-0.0001113176599827,0.0006618394673587,0.0009814361153951,-0.0032563372804704,0.0019662928065431,63395643
2024-02-03_02:04:18,1706925858327032,2299,525770100,2,0.0001163388011527,-0.0002981495227763,0.0013448745926076,0.0009032536690261,-0.0050683089729942,0.00015970329556,3647683848
2024-02-03_02:04:18,1706925858327469,2299,525770110,1,1.0190234183e-06,-0.000122985217428,0.0006639125442191,-0.0016108520246029,-0.0030673900305701,0.0009084480244795,459342141
2024-02-03_02:04:18,1706925858327927,2299,525770120,1,3.5109643535e-05,-6.67702144479e-05,0.0006447576354179,-0.003740399574666,-0.0027328655035865,0.0028718050133076,3459640477
2024-02-03_02:04:18,1706925858328317,2299,525770130,1,3.3799370221e-06,-2.59490743006e-05,0.0006458205632313,-0.0048048088894317,-0.0016632644303848,0.0037557653941244,532630891
2024-02-03_02:04:18,1706925858329037,2299,525770140,2,-0.0001484069089775,7.58617451367e-05,0.0012864654376416,-0.0130221805648041,-0.0047922193877631,0.003774933529514,2030278460
2024-02-03_02:04:18,1706925858329517,2299,525770150,1,-5.69208972976e-05,8.36937016325e-05,0.0006262085317479,-0.0083888118282799,-0.004328139463615,-0.0003010775921385,2739051854
2024-02-03_02:04:18,1706925858329998,2299,525770160,1,6.5334627666e-06,0.0001057516438078,0.0006049929835991,-0.0081985959574079,-0.0042659511931084,0.0008501894181879,2573762809
2024-02-03_02:04:18,1706925858330515,2299,525770170,1,4.21119296419e-05,0.0001299698420594,0.0005806354542768,-0.008800411490612,-0.0025308420764991,0.0015378910755826,2414497760
2024-02-03_02:04:18,1706925858331457,2299,525770180,2,-7.68368858899e-05,0.0002514865520134,0.0011266261472894,-0.0152527919032847,-0.0044342395056638,-3.31037131745e-05,4202519883
2024-02-03_02:04:18,1706925858331983,2299,525770190,1,-1.58122987237e-05,0.0002229674267609,0.0005182425701377,-0.00384907826974,-0.0035021505304779,0.0012215569638402,966690391
2024-02-03_02:04:18,1706925858333028,2299,525770200,1,3.50205686751e-05,0.0002748090280879,0.0004992356056703,-0.0056611403542356,-0.0042471656601905,0.002034117259869,2404817325
2024-02-03_02:04:18,1706925858333510,2299,525770210,1,2.52375296208e-05,0.000244764492328,0.0004909407701873,-0.0094439230926225,-0.0022218160210562,0.0039272299330911,4094449559
2024-02-03_02:04:18,1706925858334355,2299,525770220,2,-0.0002578047111216,0.0001799928814356,0.0010625922943435,-0.0214719300713194,-0.0038103859879519,-0.010266571758402,4064590548
2024-02-03_02:04:18,1706925858334806,2299,525770230,1,-9.33046625008e-05,-3.58438409548e-05,0.0005561460342273,-0.0024920848768066,-0.0045178911089373,-0.0129359923755833,773654727
2024-02-03_02:04:18,1706925858335265,2299,525770240,1,3.57995286915e-05,4.34644103827e-05,0.000509164392052,-0.0032915798401813,-0.0027127193216321,-0.0108660566311456,3858820079
2024-02-03_02:04:18,1706925858335720,2299,525770250,1,9.225027037e-05,1.75145186521e-05,0.0005016656144609,-0.0057411172064149,-0.0048224623268087,-0.0151464906273881,667012196
2024-02-03_02:04:18,1706925858336289,2299,525770260,2,0.0006626596833468,-0.0003707591953194,0.0008940435344407,-0.0110678557620906,-0.0037122459922199,-0.0211035269326338,2555915495
2024-02-03_02:04:18,1706925858336693,2299,525770270,1,0.0003247674570981,-0.0003323067881984,0.0004215812429403,-0.0026043719499712,0.0016218839432744,-0.0020113173575233,45898428
2024-02-03_02:04:18,1706925858337046,2299,525770280,1,0.0001488832138746,-0.0003749476696716,0.0004833724714078,0.0011049288991251,-0.0038845121919947,-0.0009859902864432,1855211321
2024-02-03_02:04:18,1706925858337557,2299,525770290,1,0.0003888767202057,-0.0004261740096173,0.0005308583013858,-0.0038588786367397,-0.0056651083454625,0.0028436848701156,3193157106
2024-02-03_02:04:18,1706925858338391,2299,525770300,2,0.0008792970563994,-0.0009993581749316,0.0011419188117097,-0.0082905623403651,-0.0090707197727234,0.0201259928208525,3350641266
2024-02-03_02:04:18,1706925858338819,2299,525770310,1,-1.92494578795e-05,-0.0003643720904826,0.0005792139750359,0.0058372980402232,0.0050184188327073,0.0158125495759989,2380340383
2024-02-03_02:04:18,1706925858339644,2299,525770320,1,-0.0004758983217171,-0.0002011564350528,0.0005870605348028,0.0026525043906516,-0.0039474703526842,0.0027016521138981,405276663
2024-02-03_02:04:18,1706925858340320,2299,525770330,1,-0.0002764052922875,-0.0001414182592581,0.0005956405822598,-0.0025923586591066,-0.0062345065502655,-0.0037938012041844,765335070
2024-02-03_02:04:18,1706925858341223,2299,525770340,2,6.49446496981e-05,-0.0001571698159444,0.0011639432715054,-0.0116455334438944,-0.0047839020258207,0.001836441606555,1777308831
2024-02-03_02:04:18,1706925858341720,2299,525770350,1,6.8605749444e-06,-7.03410014786e-05,0.0006039701055413,-0.007098447345277,-0.0036382477381464,0.00545248618944,1869846416
2024-02-03_02:04:18,1706925858342119,2299,525770360,1,4.30272677617e-05,-8.14058292109e-05,0.0006199919331312,-0.0064423955930475,-0.0038089866141093,0.004721437390233,248252874
2024-02-03_02:04:18,1706925858342439,2299,525770370,1,4.65420169812e-05,-5.11437816884e-05,0.0006121602371242,-0.0060712870043958,-0.0045842250930188,0.0037496696280527,1020897066
2024-02-03_02:04:18,1706925858343082,2299,525770380,2,0.0003270418987296,3.05905511518e-05,0.0011617991711154,-0.0110940256780949,-0.0057868782203185,0.0088199893445806,3293609928
2024-02-03_02:04:18,1706925858343640,2299,525770390,1,8.69456281431e-05,0.0001439455559517,0.0005257486102192,-0.0052253161051821,0.0006619982180617,0.0035708145799502,3408884357
2024-02-03_02:04:18,1706925858344484,2299,525770400,1,-0.0001428214438339,0.0001643542681717,0.0005055570051613,-0.0097510765905885,-0.0002742909315952,0.0022101515902244,3963049439
2024-02-03_02:04:18,1706925858345036,2299,525770410,1,-0.0002516581748934,5.43626160109e-05,0.0005239061543958,-0.0115828449915167,-0.0038496375892797,0.0007567610157692,2543248173
2024-02-03_02:04:18,1706925858345927,2299,525770420,2,-0.0004036590115136,-9.88417790826e-05,0.0010383023111668,-0.0097595291176047,-0.0048936179073988,-0.0016127076541661,1842640627
2024-02-03_02:04:18,1706925858346509,2299,525770430,1,-7.06757717547e-05,-3.08990331893e-05,0.0004890335039464,-0.0014174086499826,-0.0021534319593631,-0.0030806359915133,899375173
2024-02-03_02:04:18,1706925858347077,2299,525770440,1,-3.48611142384e-05,2.82426327932e-05,0.0004674975119647,-0.0009151716294041,-0.0014295796377213,-0.0014412125803621,486313799
2024-02-03_02:04:18,1706925858347757,2299,525770450,1,-4.7136146054e-06,9.66138209922e-05,0.0004323058780302,-0.0027389971647258,-0.0035654474889856,-0.0012347686355488,1940643646
2024-02-03_02:04:18,1706925858348636,2299,525770460,2,0.0001801220598864,4.86983738365e-05,0.0008549274009823,-0.0101043528772448,-0.0044976129473133,-0.0012138013204377,616546715
2024-02-03_02:04:18,1706925858349221,2299,525770470,1,-1.95683714558e-05,-0.0001145758650617,0.0004347993547458,-0.0030774580971837,-0.000638782945009,-0.0022884879222868,507872465
2024-02-03_02:04:18,1706925858349685,2299,525770480,1,-0.0001692106673096,-0.0001662006290667,0.0004265838535636,-0.0013913845694799,0.0009889746299482,-0.0014496043420146,620637320
2024-02-03_02:04:18,1706925858350310,2299,525770490,1,-0.0002931052740433,-0.000175113932763,0.0004103284512497,-0.0008189234467457,-0.0006588529458122,-0.0014453399455042,4232019530
2024-02-03_02:04:18,1706925858351611,2299,525770500,2,-0.0004722242607738,-0.0003692507711198,0.0007598666546805,-0.0049045167982165,-0.0064578419723272,-0.0030367854323756,4250983936
2024-02-03_02:04:18,1706925858352184,2299,525770510,1,-0.0001402179390232,-0.0002501235355506,0.0003742479303316,-0.0042913005233578,-0.0029041985550905,0.0010468410869412,4263941012
2024-02-03_02:04:18,1706925858352673,2299,525770520,1,-0.0001627269676112,-0.0003002298694582,0.0003822881577395,-0.003851795403072,-0.002996431886929,0.0008609969543451,1759072414
2024-02-03_02:04:18,1706925858353185,2299,525770530,1,-0.0001578890355242,-0.0003387442345494,0.0004012183606974,-0.0018755822231322,-0.0030243702064209,-0.000640719916415,653801152
2024-02-03_02:04:18,1706925858353858,2299,525770540,2,-0.0002334270209224,-0.0005687517090693,0.0007777402980351,-0.0029262592780236,-0.0072800020522631,-0.0026834968620314,1930709994
2024-02-03_02:04:18,1706925858354508,2299,525770550,1,4.398888397e-07,-0.0002183876058469,0.0003755727552163,-0.0041941040773635,-0.002339381738626,0.0002068281849107,3043296605
2024-02-03_02:04:18,1706925858355178,2299,525770560,1,-8.42940971281e-05,-0.0002036016461357,0.0003864352097817,-0.0039385204020194,-2.15445305225e-05,-9.54974462793e-05,3029578801
2024-02-03_02:04:18,1706925858356016,2299,525770570,1,-0.0002172711696294,-0.0001918600810497,0.0004009005697929,-0.0031353126511744,-0.0021484051284572,-0.0019853923381152,3703565398
2024-02-03_02:04:18,1706925858357111,2299,525770580,2,-0.0003724978836865,-0.0002156459040372,0.0007845294299603,-0.0026757399110986,-0.0057706146581069,-0.0013401807103329,3064794756
2024-02-03_02:04:18,1706925858357661,2299,525770590,1,-0.0001603476427351,3.0569260045e-06,0.0003730592546834,-0.0018524303562552,-0.0026408757025573,-0.0002419559970128,265550079
2024-02-03_02:04:18,1706925858358688,2299,525770600,1,-0.0001230087621771,5.7140957734e-05,0.0003652082224588,-0.0025356887859453,-0.003316820646548,-0.0012407108653967,4228580621
2024-02-03_02:04:18,1706925858359271,2299,525770610,1,-7.76213135082e-05,9.06764743838e-05,0.0003700436878839,-0.0023060708441946,-0.0017953947242599,-0.0005012803879059,4095536758
2024-02-03_02:04:18,1706925858360124,2299,525770620,2,-0.0002139702260204,0.0003007667932757,0.0007823656666651,-0.0023831041035937,-0.0048154153482356,0.0008014917981013,1802839963
2024-02-03_02:04:18,1706925858360634,2299,525770630,1,-8.26901616192e-05,0.0002514803880036,0.0003995477342482,0.0009221517512613,-0.0031799409803246,0.0017347107665013,168404505
2024-02-03_02:04:18,1706925858361112,2299,525770640,1,-0.0001162110931204,0.0003723708643282,0.0003792413833923,0.0020147256164124,-0.0019666071242296,0.0035730413185233,3775767825
2024-02-03_02:04:18,1706925858361634,2299,525770650,1,-0.0001835822532895,0.0004903297786887,0.0003487859623782,0.0003154580864523,-0.0003650219534444,0.0054419388368268,1041090086
2024-02-03_02:04:18,1706925858362337,2299,525770660,2,-0.0006594861657613,0.0009429001120672,0.0007448571222743,-0.0062569278069814,-0.0013427599542338,-0.0011822608244676,4097852359
2024-02-03_02:04:18,1706925858362902,2299,525770670,1,-0.0003745671673863,0.0003426096383206,0.000412801090875,-0.0011939761120839,-0.0024330541966798,-0.006295861367462,2406813198
2024-02-03_02:04:18,1706925858363765,2299,525770680,1,-0.0002371975066954,0.0003277502013445,0.0004039759806228,0.0034035070314912,-0.0033863707345679,-0.0062389639624747,3415915801
2024-02-03_02:04:18,1706925858364628,2299,525770690,1,-0.000201093676001,0.0004182831924659,0.000369540099458,0.0078668109938503,-0.0021956741822971,-0.0037877763624725,1967938724
2024-02-03_02:04:18,1706925858365782,2299,525770700,2,-0.0003877887750968,0.0012624728591447,0.0005627599086625,0.0053837455253216,-0.0056448016668118,-0.0063451921670143,587565211
2024-02-03_02:04:18,1706925858366421,2299,525770710,1,-9.99892616485e-05,0.000554683839491,0.0002695804800687,-0.0072182943728226,-0.0051035702080462,-0.0052179690881057,194876465
2024-02-03_02:04:18,1706925858367034,2299,525770720,1,3.00215970904e-05,0.0003470327833781,0.0003041004828161,-0.0043408236345677,-0.0034094800983256,-0.0007220979424232,921286768
2024-02-03_02:04:18,1706925858367510,2299,525770730,1,-1.7442542425e-05,0.0002525144287601,0.0003057465317991,0.0014795618742491,-0.0012831563792601,0.0036572626393279,3808262724
2024-02-03_02:04:18,1706925858368443,2299,525770740,2,-0.0003436971485723,0.0005841275201587,0.0004779856396466,0.0059892229032196,-0.0080731050948847,0.0006275254096669,3728016857
2024-02-03_02:04:18,1706925858368911,2299,525770750,1,-8.41270736167e-05,0.0002986670763371,0.0001756277004606,-0.0015838235546245,-0.0042760768727077,-0.0007811423307653,2516243594
2024-02-03_02:04:18,1706925858369332,2299,525770760,1,-4.64644590007e-05,0.000199349284757,0.0001714130345424,-0.0052449721383855,-0.00344755287227,0.001784908663257,1763621089
2024-02-03_02:04:18,1706925858369901,2299,525770770,1,-4.83152914637e-05,5.9055372664e-05,0.0001878898237772,-0.0053013160867633,-0.0027826076457753,0.0035194326343908,329812752
2024-02-03_02:04:18,1706925858370634,2299,525770780,2,-0.0001004619867106,-0.0001447424472922,0.0004331677176632,-0.0045536458501413,-0.0070114345859659,0.0025287679223046,462474367
2024-02-03_02:04:18,1706925858371165,2299,525770790,1,6.24832128117e-05,-0.0001325923283557,0.0002247270477721,-0.0017668217357559,-0.0040663289992355,0.0012900106532929,3168734200
2024-02-03_02:04:18,1706925858372454,2299,525770800,1,0.0001723253375539,-0.0001370561723784,0.0002096703312721,-0.0029938996040963,-0.0035339698569615,0.0014566870299699,3861600051
2024-02-03_02:04:18,1706925858373015,2299,525770810,1,0.0002075547514874,-0.0001498780864272,0.00019047331989,-0.0059849852161661,-0.0041072260648267,4.76038143566e-05,2633781756
2024-02-03_02:04:18,1706925858373745,2299,525770820,2,0.0003517333298434,-0.00053753970212,0.0004114651219483,-0.0165990578884743,-0.0046560014110831,0.0048582366658836,3420070413
2024-02-03_02:04:18,1706925858374234,2299,525770830,1,6.61832704775e-05,-0.0004323799946077,0.0002788152732828,-0.0074145093272714,0.0007975495845486,0.0016289208747496,1996469126
2024-02-03_02:04:18,1706925858374815,2299,525770840,1,-5.2935704895e-06,-0.0004290448013371,0.0003027823910288,-0.0025181862808931,-0.001941714521394,-0.0068152531651599,966275154
2024-02-03_02:04:18,1706925858375295,2299,525770850,1,0.0001478432069837,-0.0002993659680841,0.0002655490007642,-0.0013598012669731,-0.0045589842878331,-0.0100759152261088,24906081
2024-02-03_02:04:18,1706925858375957,2299,525770860,2,0.0005975285273672,-0.0003597249401882,0.0005171497153448,-0.0154865938873703,-0.0032802456749284,-0.0022957450812277,1852599392
2024-02-03_02:04:18,1706925858376635,2299,525770870,1,0.0003175159845663,-0.0002161726625819,0.0003116371329924,-0.0082540859499078,-0.0023555238340028,-0.0007886599517591,2148482345
2024-02-03_02:04:18,1706925858377161,2299,525770880,1,0.0002688148969806,-0.0002186190667745,0.0003201585450619,-0.0064747195006506,-0.0010750131987992,-0.0025533023406469,3792820073
2024-02-03_02:04:18,1706925858377726,2299,525770890,1,0.00015804444669,-0.0002026472044859,0.0003345851988474,-0.0039539420432146,-0.0008634834513218,-0.004569028701991,3785202978
2024-02-03_02:04:18,1706925858379176,2299,525770900,2,0.0004656257101977,-0.0001988893597972,0.0006222842201166,-0.0034597151562995,-0.0061912574107154,-0.0107365772360602,2358456386
2024-02-03_02:04:18,1706925858379908,2299,525770910,1,0.0002987668290568,-2.3380908765e-06,0.0002678157647314,-0.0040216999035217,-0.0011101507144317,-0.0013359568909783,252254560
2024-02-03_02:04:18,1706925858380644,2299,525770920,1,0.0001601138680818,-3.43048672949e-05,0.0002748357927052,-0.0050075072261875,-0.0012822616995061,-0.000313680399888,2255167636
2024-02-03_02:04:18,1706925858381131,2299,525770930,1,0.000108032383134,-0.0001129113063511,0.0002934162629437,-0.0045716136979599,-0.0037966828850152,-0.0015176469773439,2499340296
2024-02-03_02:04:18,1706925858381896,2299,525770940,2,0.000344685092431,-0.0003874233571112,0.0006030125982136,-0.0027861075948208,-0.0041762235967474,0.0011487750619431,1944516834
2024-02-03_02:04:18,1706925858382419,2299,525770950,1,0.0002078555429205,-0.0001571540675964,0.000269625317748,0.0011804145758729,-0.0035993199433442,-5.49595184651e-05,2989850926
2024-02-03_02:04:18,1706925858382988,2299,525770960,1,0.0002901615670119,-0.0001114675814515,0.0002299919496787,-0.000478127711572,-0.0029245175478758,0.0023916181656744,4055602635
2024-02-03_02:04:18,1706925858383636,2299,525770970,1,0.0002733963184566,-0.0001199487544204,0.0002208465527473,-0.003457042390707,-0.0010528980737396,0.0057075570330782,2103889326
2024-02-03_02:04:18,1706925858384477,2299,525770980,2,9.50858622039e-05,-0.000424761077006,0.0004946636304421,-0.0052004854683142,-0.0017818375002804,0.0058603325789626,2367572494
2024-02-03_02:04:18,1706925858385073,2299,525770990,1,-4.46860671842e-05,-0.0002451658373694,0.0002383378224165,0.0011842981274442,-0.0023665778684917,0.0005176481188329,3433201461
2024-02-03_02:04:18,1706925858386072,2299,525771000,1,-5.35957973675e-05,-0.0002087218758247,0.0002208915850515,0.0022118420635932,-0.0022606318657918,0.0008978927633919,2426597168
2024-02-03_02:04:18,1706925858386630,2299,525771010,1,-4.22911950544e-05,-0.0001627500562118,0.0002010888686263,0.0014418269244571,-0.0020876025217607,0.001024728836361,1309692561
2024-02-03_02:04:18,1706925858387752,2299,525771020,2,-3.74003599251e-05,-0.0002853852426938,0.0003568772559425,-0.0035217875001581,-0.0052118929184001,-0.0045239463237452,1334939465
2024-02-03_02:04:18,1706925858388452,2299,525771030,1,-7.919340269e-07,-0.0001743964338082,0.000187755066177,-0.0017316040039907,-0.0015693863196822,-0.0043003083548369,3023634876
2024-02-03_02:04:18,1706925858388941,2299,525771040,1,4.4768963573e-06,-0.0001681367016434,0.0001939791476787,0.0001188619696023,-0.0020141901763956,-0.0062517920988015,3302194427
2024-02-03_02:04:18,1706925858389446,2299,525771050,1,4.75580446436e-05,-0.0001209630923565,0.0001781880576496,0.0009231556447514,-0.0018134904274475,-0.0065648626305797,2631043883
2024-02-03_02:04:18,1706925858390297,2299,525771060,2,0.0001094353476674,-5.99300932224e-05,0.0003043404935301,0.0036001832725058,-0.0040438794293992,-0.01030232960496,2693319150
2024-02-03_02:04:18,1706925858390885,2299,525771070,1,9.0319036192e-05,4.81782374253e-05,0.0001439321425717,0.0017441663060336,-0.001808299828538,-0.0042717200741187,692256253
2024-02-03_02:04:18,1706925858391381,2299,525771080,1,5.36744248575e-05,7.50066701063e-05,0.0001647099184997,0.0026287813728869,-0.0008119625581776,-0.003960283779483,2262586835
2024-02-03_02:04:18,1706925858391859,2299,525771090,1,1.94880212495e-05,0.0001129191551982,0.000180446865678,0.003709789572807,-0.0022824001810866,-0.0057759948875714,759964449
2024-02-03_02:04:18,1706925858393040,2299,525771100,2,0.0001294374704735,0.0003538776597592,0.0003606195546232,0.0116572951262105,-0.0029443785115959,-0.0093983052351008,437707844
2024-02-03_02:04:18,1706925858393637,2299,525771110,1,8.72146763663e-05,0.0002729114148758,0.0001706642325699,0.0062065574103521,-0.0037382701781744,-0.0036890910777181,2648357256
2024-02-03_02:04:18,1706925858394141,2299,525771120,1,0.0001715858671255,0.0002405190545139,0.0001946731221493,0.0039035357221964,-0.0025081236665645,0.0015015326283529,2803965121
2024-02-03_02:04:18,1706925858394653,2299,525771130,1,0.0001107384419652,0.0001840121592862,0.0002255865109153,0.0052743496048842,-0.0011290586032412,0.0052575417707272,1946654465
2024-02-03_02:04:18,1706925858395629,2299,525771140,2,0.0001775459823709,0.000369773750425,0.000462635101062,0.0141952765974974,-0.0072281041526547,0.0080921398759704,1197038067
2024-02-03_02:04:18,1706925858396333,2299,525771150,1,9.36990546864e-05,0.0001609022526418,0.0002505679894979,0.0049509375558471,-0.0021524784428608,0.0099190683855241,3462298393
2024-02-03_02:04:18,1706925858396901,2299,525771160,1,3.99630834941e-05,0.000146476662183,0.000255745869108,0.0040323867060108,-0.0027839759824387,0.0092047460499723,2226608795
2024-02-03_02:04:18,1706925858397300,2299,525771170,1,-2.99800765069e-05,0.0001316642615212,0.0002492225320134,0.0013101132096591,-0.0019046456520601,0.0085396440316664,2068414318
2024-02-03_02:04:18,1706925858397902,2299,525771180,2,-0.0002900539091431,9.96586073986e-05,0.0005546700950073,-0.0041482051108055,-0.0059541627681009,0.0184148905701837,103792194
2024-02-03_02:04:18,1706925858398340,2299,525771190,1,-9.0302596345e-05,-3.13683569702e-05,0.00030250474673,-0.0037012930517059,-0.0024106753058677,0.0091376907562847,2630820755
2024-02-03_02:04:18,1706925858399071,2299,525771200,1,-8.42782002211e-05,-1.87729889529e-05,0.0002852859751414,-0.0033820514334459,-0.0027432634607898,0.0075256064106743,569945990
2024-02-03_02:04:18,1706925858399475,2299,525771210,1,-8.53639124226e-05,4.92242560978e-05,0.0002349287820405,-0.0038192398451644,-0.0036742477464965,0.0067377768154668,3651812612
2024-02-03_02:04:18,1706925858400115,2299,525771220,2,-0.0001329497274485,0.0002008796997682,0.0003598781473453,-0.0189658087933545,-0.0083747835345452,0.0200893847921193,1523725949
2024-02-03_02:04:18,1706925858400632,2299,525771230,1,-0.0001102605749954,2.8526998033e-06,0.0001830530273232,-0.0146271746431095,-0.0021809988332083,0.0116817068708507,1180399737
2024-02-03_02:04:18,1706925858401091,2299,525771240,1,-0.0002466424980974,-9.45619144343e-05,0.0001969552201706,-0.0121403297914056,-0.0003020182619149,0.0093279384951903,399191688
2024-02-03_02:04:18,1706925858402091,2299,525771250,1,-0.0003529330179589,-8.82383363631e-05,0.0001764541807034,-0.0066116966335572,-0.0018824756686173,0.0040782032970017,245034951
2024-02-03_02:04:18,1706925858402857,2299,525771260,2,-0.000541249003403,0.000193110999538,0.000178302136264,-0.0103639379607765,-0.0096696059145153,0.0015786182408096,619310190
2024-02-03_02:04:18,1706925858403304,2299,525771270,1,-0.0001226789702102,0.0001640763093737,4.4488860175e-05,-0.010997975395519,-0.0025448899306436,0.0033621252748784,3414826066
2024-02-03_02:04:18,1706925858403765,2299,525771280,1,-0.0001719788452966,7.97387324134e-05,6.2678808457e-05,-0.0121457073711245,-0.0004937910171865,0.0013777687940083,2926148014
2024-02-03_02:04:18,1706925858404465,2299,525771290,1,-0.0002722307183345,-1.1095363497e-06,7.6737510221e-05,-0.0084719757131394,-0.0016115125577918,-0.0040243309871671,2821434391
2024-02-03_02:04:18,1706925858406149,2299,525771300,2,-0.0003382839452871,2.67435942262e-05,0.0001344175775242,-0.0042326462884231,-0.0071293443142828,-0.0136040896721423,1574806012
2024-02-03_02:04:18,1706925858406679,2299,525771310,1,-4.1737013147e-06,9.68203100129e-05,3.27702818304e-05,-0.0007641509516483,-0.0032520380905704,-0.0037887653511529,24440633
2024-02-03_02:04:18,1706925858407168,2299,525771320,1,7.4471566995e-05,0.0001102643283497,1.98556678157e-05,-0.0027570844637004,-0.0036414038708135,-0.0029629371695837,2035353104
2024-02-03_02:04:18,1706925858407650,2299,525771330,1,5.04000758133e-05,6.46514055393e-05,2.77545401224e-05,-0.0035966492385037,-0.0012658030347007,-0.0008721403047542,3541123963
2024-02-03_02:04:18,1706925858408387,2299,525771340,2,-0.0001931706348338,-7.35242737134e-05,0.0001235898285412,-0.0014272954827855,-0.0052894309848377,-0.0039327283010932,3524022825
2024-02-03_02:04:18,1706925858408990,2299,525771350,1,3.42874426279e-05,-9.11892665201e-05,7.20799567139e-05,0.0019214670440297,-0.0036560215101269,-0.0023844292532591,3099841358
2024-02-03_02:04:18,1706925858409488,2299,525771360,1,8.4762349403e-05,-0.0001188221005732,8.01744402832e-05,0.0023121619613446,-0.0020418553130273,-0.0010606423351612,1370470878
2024-02-03_02:04:18,1706925858409943,2299,525771370,1,4.18751998771e-05,-0.0001434253426358,8.84726956707e-05,0.0025900233561582,-0.0020378245475914,-0.0016653993168568,1109605628
2024-02-03_02:04:18,1706925858410634,2299,525771380,2,0.000120195929574,-0.0003599927179293,0.0001809192846103,0.0039700157778889,-0.0054537139970319,-0.008098876257737,3470842038
2024-02-03_02:04:18,1706925858411116,2299,525771390,1,0.0001267987371306,-0.000250413528802,0.0001122897646751,0.0013557166277745,-0.0021591155519303,-0.0045586712429794,1027092714
2024-02-03_02:04:18,1706925858412642,2299,525771400,1,0.0001757526102144,-0.0002925946892178,0.0001297005579504,0.0016364657191178,-0.0027644266015078,-0.0052733857860741,3017648128
2024-02-03_02:04:18,1706925858413211,2299,525771410,1,0.0002198065806048,-0.000311290507889,0.0001352207782553,0.0021987964458241,-0.0028766886519009,-0.0053608269984064,592103221
2024-02-03_02:04:18,1706925858414072,2299,525771420,2,0.0004802671540649,-0.0006078021331372,0.0002637304098667,0.0042172980009927,-0.0049930862818103,-0.0082664629056106,2099019851
2024-02-03_02:04:18,1706925858414542,2299,525771430,1,0.0002430354078068,-0.0003129894095957,0.0001380287044685,0.0006126458297635,-0.0022432476188429,-0.0044937302217967,1478902973
2024-02-03_02:04:18,1706925858415075,2299,525771440,1,0.0002857413581708,-0.000331118501588,0.0001481790821782,-0.0001509862098584,-0.0027863270318615,-0.0052222791405435,3147160777
2024-02-03_02:04:18,1706925858415454,2299,525771450,1,0.0003188517251934,-0.0003367534960797,0.0001527926598222,-0.0002351770075902,-0.0024940006780765,-0.0041051846804439,189429963
2024-02-03_02:04:18,1706925858416038,2299,525771460,2,0.0005959842850968,-0.0006320332522085,0.0002987437436086,0.0009477467953836,-0.0051040046263555,-0.0047842200339657,2203557986
2024-02-03_02:04:18,1706925858416428,2299,525771470,1,0.0003157194362368,-0.0002547507607156,0.0001330261264086,0.0002177540395026,-0.0030902210053915,-0.002485933182603,168715966
2024-02-03_02:04:18,1706925858416860,2299,525771480,1,0.0003440460917858,-0.000214793701941,0.0001243130314648,-0.0007693679606285,-0.0023231039924483,-0.0024689664733997,983093864
2024-02-03_02:04:18,1706925858417278,2299,525771490,1,0.0003380579578859,-0.000184181519905,0.000120411390128,-0.0012846716234702,-0.002280167430865,-0.0027290699482907,2648393257
2024-02-03_02:04:18,1706925858418209,2299,525771500,2,0.0006409590465566,-0.0002525349772932,0.0002294168628126,-0.0023312233264661,-0.0042089212011045,-0.0038834983228577,2169869015
2024-02-03_02:04:18,1706925858418679,2299,525771510,1,0.0003054166787401,-5.29612076888e-05,0.000106107164357,-0.0002076846760161,-0.0027208790299455,-0.0009206218875025,2458477364
2024-02-03_02:04:18,1706925858419311,2299,525771520,1,0.0003198848178038,-4.4444367075e-06,9.66878966318e-05,-0.0001138886956304,-0.0030694746720013,-0.0004937859286839,141047682
2024-02-03_02:04:18,1706925858419864,2299,525771530,1,0.000308934104953,3.39332701697e-05,9.06426114636e-05,-0.0003218585458526,-0.0016636816953568,0.0007918380191543,3272595397
2024-02-03_02:04:18,1706925858420811,2299,525771540,2,0.0004940724230127,0.0001766009955595,0.0001654511575368,0.0005110440332318,-0.0044149614671679,0.0002598620732755,1909455247
2024-02-03_02:04:18,1706925858421338,2299,525771550,1,0.0002552852494717,0.0001277566756107,6.53294954107e-05,0.000198273546448,-0.0028444121975608,0.0014713420745941,2551902830
2024-02-03_02:04:18,1706925858421903,2299,525771560,1,0.0002462496240074,0.0001324487498089,6.19941903373e-05,-7.18032823914e-05,-0.0021619059904268,0.0033212476140853,2823090765
2024-02-03_02:04:18,1706925858422524,2299,525771570,1,0.0001995509069649,0.000131143741728,6.00438342734e-05,0.0002665374585098,-0.0018456480116038,0.0028230027139831,2376701297
2024-02-03_02:04:18,1706925858423332,2299,525771580,2,0.0002726783761791,0.0002269180351748,0.0001192618150572,0.0011619785228561,-0.0044577864660454,0.0027245689407518,783461267
2024-02-03_02:04:18,1706925858423849,2299,525771590,1,0.0001515376865646,0.0001138509423873,5.14055180603e-05,0.0019215344648888,-0.0030071876689534,0.0015505803961869,3435309985
2024-02-03_02:04:18,1706925858424733,2299,525771600,1,0.0001527552154208,0.0001349359389415,3.93865578304e-05,0.001701748976194,-0.0028779834067295,0.0022106895847652,2346120729
2024-02-03_02:04:18,1706925858425134,2299,525771610,1,0.0001373134214648,0.0001291888056136,3.91223090087e-05,0.0006374070461855,-0.0016492473421201,0.002991922715978,408218182
2024-02-03_02:04:18,1706925858425728,2299,525771620,2,0.0001603806501678,0.0001907761164512,9.48092321143e-05,-0.00025481954497,-0.0047312169876438,0.0029447082212228,3987004439
2024-02-03_02:04:18,1706925858426296,2299,525771630,1,9.23542899874e-05,6.94945014346e-05,4.81216704884e-05,0.000986645608997,-0.0024820046968823,0.0016618329606254,3597873958
2024-02-03_02:04:18,1706925858426854,2299,525771640,1,8.55004423379e-05,7.82876676736e-05,4.5759833633e-05,0.0012905826527979,-0.0023448787868652,0.0021949088998291,892833717
2024-02-03_02:04:18,1706925858427642,2299,525771650,1,7.53355415543e-05,8.55122629037e-05,4.43849269872e-05,0.0008155321318951,-0.0023158621617966,0.0026557592101159,876412196
2024-02-03_02:04:18,1706925858428649,2299,525771660,2,7.07413174593e-05,0.0001700228530118,8.47659711151e-05,-0.0006764597466406,-0.0047517917080598,0.0059235007212712,1603496328
2024-02-03_02:04:18,1706925858429237,2299,525771670,1,2.0878389341e-06,8.52552445524e-05,4.16828029699e-05,-0.0007649750325235,-0.0021695830426072,0.0025630484591361,3545735708
2024-02-03_02:04:18,1706925858429812,2299,525771680,1,1.494434311e-07,7.82314093248e-05,4.3379780656e-05,-0.0006340064825749,-0.0018365495703996,0.0024829709438045,132724885
2024-02-03_02:04:18,1706925858430330,2299,525771690,1,-3.83656903892e-05,7.67437423985e-05,4.79391676922e-05,-0.0003094789796193,-0.0021659263504816,0.0019097119366699,4187376089
2024-02-03_02:04:18,1706925858431493,2299,525771700,2,-6.20386202112e-05,0.0001691377561951,9.24810526973e-05,-0.0013623037089807,-0.0053993078525544,0.0054818313024782,2513565012
2024-02-03_02:04:18,1706925858431906,2299,525771710,1,-6.03093145492e-05,9.28748692559e-05,3.74887808272e-05,-0.0002906226840186,-0.0020092432802339,0.0029421353990334,1057823923
2024-02-03_02:04:18,1706925858432434,2299,525771720,1,-8.68750286786e-05,8.41691579536e-05,3.85798256441e-05,-0.0008883074535698,-0.0022444542865616,0.0015808463156563,979067922
2024-02-03_02:04:18,1706925858432833,2299,525771730,1,-0.0001027239017937,6.89140411624e-05,4.54677782103e-05,-0.0006957456826383,-0.0027216345432155,0.0009701276677094,200600711
2024-02-03_02:04:18,1706925858433404,2299,525771740,2,-0.0001650884765575,0.000133652712028,9.99198914803e-05,-0.0013468252515135,-0.0047848732257744,0.0024337653689394,1236743469
2024-02-03_02:04:18,1706925858433854,2299,525771750,1,-9.17127958338e-05,7.36586759462e-05,4.22605072346e-05,-0.0008460007875246,-0.002669995476569,0.0011802244797336,3166962599
2024-02-03_02:04:18,1706925858434293,2299,525771760,1,-8.46789839671e-05,6.36093670522e-05,4.70447647953e-05,-0.0006021408578836,-0.0028370021175402,0.0015500192953093,2266424258
2024-02-03_02:04:18,1706925858434812,2299,525771770,1,-9.32077230996e-05,6.39868450317e-05,4.78050072939e-05,-0.0006794181933655,-0.0028671113562945,0.0021850297476604,2915563725
2024-02-03_02:04:18,1706925858435693,2299,525771780,2,-0.0001837115055671,0.0001255256985021,9.62925844743e-05,-0.0014971873084985,-0.0051289926817851,0.0051987181858881,198309499
2024-02-03_02:04:18,1706925858436289,2299,525771790,1,-0.0001016969746171,5.24747855762e-05,5.65008737872e-05,-0.000548234749535,-0.0029682773818823,0.0021495788333294,4268585284
2024-02-03_02:04:18,1706925858437338,2299,525771800,1,-0.0001091203968568,3.37350566566e-05,6.17688554866e-05,-0.0004149322325935,-0.0021479323637965,0.0026156309839053,456926289
2024-02-03_02:04:18,1706925858437814,2299,525771810,1,-0.0001268027986305,2.81778531565e-05,5.50825395915e-05,0.0003530544990273,-0.0020577750766793,0.0024302990768359,3902474643
2024-02-03_02:04:18,1706925858438364,2299,525771820,2,-0.0002745128935966,5.29475598574e-05,0.000103972196756,-0.0010389346501727,-0.0055325200677109,0.0039983183355528,783737824
2024-02-03_02:04:18,1706925858438830,2299,525771830,1,-0.0001380677567243,6.0641521508e-06,6.58606943281e-05,-0.000838179230819,-0.0021592338382929,0.0023231959238314,1700667037
2024-02-03_02:04:18,1706925858439234,2299,525771840,1,-0.0001249354446183,4.0268368512e-06,6.04779111194e-05,-0.0007761871127942,-0.0021147145079988,0.0021604992384652,243692193
2024-02-03_02:04:18,1706925858439810,2299,525771850,1,-0.0001440920233525,-1.47676956812e-05,6.23621341407e-05,-0.0005749801886223,-0.0029176557964805,0.0016998696711081,453424514
2024-02-03_02:04:18,1706925858440474,2299,525771860,2,-0.000325003637577,-6.21601825985e-05,0.0001275050990879,0.0005434759091338,-0.0049323609057019,0.0047413147388538,1758422916
2024-02-03_02:04:18,1706925858440916,2299,525771870,1,-0.0001911556232451,-3.06953787744e-05,6.07144190269e-05,-0.0007314155912399,-0.0024557835305132,0.0020347390127758,2041172062
2024-02-03_02:04:18,1706925858441342,2299,525771880,1,-0.0002071413918406,-4.24411430692e-05,6.24733900983e-05,-0.0004064961498384,-0.0018732433433805,0.0025496394964233,2477651614
2024-02-03_02:04:18,1706925858441855,2299,525771890,1,-0.0002275759659529,-4.10411374994e-05,6.22036159856e-05,-0.0003042254571,-0.0026445428882831,0.0019000892396911,2022586770
2024-02-03_02:04:18,1706925858442850,2299,525771900,2,-0.0004627697100474,-0.0001138708918204,0.0001226742595358,-0.0018120848041096,-0.0050877160178431,0.0030346928423418,40103176
2024-02-03_02:04:18,1706925858443522,2299,525771910,1,-0.000259128327589,-5.65255873522e-05,5.98875506561e-05,-0.00029910767961,-0.0019390360724822,0.0018345427608822,2021362477
2024-02-03_02:04:18,1706925858444243,2299,525771920,1,-0.0002629263128358,-4.4158480366e-05,6.26359409888e-05,-0.0003119296431719,-0.0026383430780884,0.0007659239593145,3272023416
2024-02-03_02:04:18,1706925858444861,2299,525771930,1,-0.0002643306079799,-2.89016759867e-05,5.83011629823e-05,-0.000328438353182,-0.0032682545711401,-0.0002956725682231,3189954467
2024-02-03_02:04:18,1706925858445536,2299,525771940,2,-0.0005286332223125,6.9095810092e-06,0.0001033122185994,-0.0011500564098411,-0.0044872093214036,-0.0007053511678778,4064504912
2024-02-03_02:04:18,1706925858446067,2299,525771950,1,-0.0002909330855664,4.6415912695e-06,6.27205051557e-05,-0.0005576705674572,-0.0024751193499551,-0.0012013899796887,1781418955
2024-02-03_02:04:18,1706925858446419,2299,525771960,1,-0.0002757655745019,1.43002876634e-05,6.56612630887e-05,-6.58698768143e-05,-0.0024549278749287,-0.0017965600223842,718531707
2024-02-03_02:04:18,1706925858446858,2299,525771970,1,-0.0002526064816413,2.87821355164e-05,6.34625373303e-05,-0.0002368410049287,-0.0021899289796286,-0.0023238577090524,603264215
2024-02-03_02:04:18,1706925858447504,2299,525771980,2,-0.0004869013405603,0.0001079009611243,0.0001115309341869,0.0003764677130376,-0.0052623384692761,-0.0047603771952374,1950049673
2024-02-03_02:04:18,1706925858447858,2299,525771990,1,-0.0002158079909734,8.77881946371e-05,4.60279693689e-05,9.06348536597e-05,-0.0025288690005415,-0.0025986963986583,1888616076
2024-02-03_02:04:18,1706925858448652,2299,525772000,1,-0.000209416339045,8.58768609294e-05,4.69701180568e-05,-0.0002193795899495,-0.0028749147504105,-0.0028667479862984,3689199723
2024-02-03_02:04:18,1706925858449082,2299,525772010,1,-0.0001966301557016,7.56751568437e-05,4.44637555478e-05,-0.000259680552503,-0.0024095144193375,-0.0021294024170972,2122590373
2024-02-03_02:04:18,1706925858449684,2299,525772020,2,-0.0003938510711059,0.0001204459283261,8.31571397393e-05,-0.0001168453742588,-0.0041182466693613,-0.005200906378518,1345365644
2024-02-03_02:04:18,1706925858450255,2299,525772030,1,-0.0001659800931806,4.92996908778e-05,4.35259815962e-05,0.0004648406319293,-0.002457128109242,-0.0022349152120736,1278112226
2024-02-03_02:04:18,1706925858450646,2299,525772040,1,-0.0001654810026661,5.72939842537e-05,3.99366660315e-05,0.0004991012698045,-0.0027244861890526,-0.0017640995667938,4291681129
2024-02-03_02:04:18,1706925858451041,2299,525772050,1,-0.0001481796245122,6.14423286014e-05,3.19704777399e-05,0.0004628843028386,-0.0021438835548003,-0.0017887150288048,2716096077
2024-02-03_02:04:18,1706925858452329,2299,525772060,2,-0.000307774462838,0.0001177803554115,6.78596003815e-05,-0.0006445973231228,-0.0045103042448997,-0.005390026573055,1277605592
2024-02-03_02:04:18,1706925858452867,2299,525772070,1,-0.0001386210275217,3.99772579894e-05,4.38415005522e-05,0.0002310494038428,-0.0022107832566799,-0.0028733325404778,2906296288
2024-02-03_02:04:18,1706925858453272,2299,525772080,1,-0.0001193048609818,5.86818994352e-05,3.53634184592e-05,0.0009375697757645,-0.0019048203404438,-0.0027118075025095,867842484
2024-02-03_02:04:18,1706925858453724,2299,525772090,1,-9.743512414e-05,8.00807282842e-05,2.64683945126e-05,0.0006187912423399,-0.0017170323018108,-0.0025823282081564,1819534726
2024-02-03_02:04:18,1706925858454729,2299,525772100,2,-0.0002127256410652,0.000162408531582,5.24627995402e-05,0.000555431322949,-0.0033882662407396,-0.006603154866715,1365699553
2024-02-03_02:04:18,1706925858455141,2299,525772110,1,-7.04007775016e-05,6.51427971106e-05,3.37987118121e-05,-0.0001720240213895,-0.002209162703531,-0.0034724687426209,2416711323
2024-02-03_02:04:18,1706925858455535,2299,525772120,1,-6.74215100136e-05,3.75060012426e-05,4.65702997904e-05,7.63576510155e-05,-0.0012797199552627,-0.0027903010744599,2659212162
2024-02-03_02:04:18,1706925858456155,2299,525772130,1,-8.33350335833e-05,3.77293989884e-05,4.80225185884e-05,0.0010558083807224,-0.0018184035357762,-0.0036478254786308,1625684098
2024-02-03_02:04:18,1706925858456832,2299,525772140,2,-0.0001201266711811,9.64659670376e-05,0.0001001923496538,0.0005039927084369,-0.0036283510959158,-0.0056210377437137,3852250264
2024-02-03_02:04:18,1706925858457045,2299,525772150,1,-6.39699541696e-05,3.68012353936e-05,5.62378922788e-05,0.0002109482246577,-0.0019511019678446,-0.0020959271327605,339816422
2024-02-03_02:04:18,1706925858458125,2299,525772160,1,-4.32840739507e-05,3.93819292906e-05,5.45882837201e-05,4.58973376509e-05,-0.0018791914191249,-0.0031677088577414,3074876169
2024-02-03_02:04:18,1706925858458137,2299,525772170,1,-4.14741526604e-05,2.30203203837e-05,5.50383475933e-05,-0.0002306601330667,-0.0012769126688026,-0.0024267117099784,1836741815
2024-02-03_02:04:18,1706925858458447,2299,525772180,2,-0.0001096492820235,4.019637763e-07,0.0001165067487377,-0.0003722168048043,-0.0044209374419282,-0.0026602043307233,1691623404
2024-02-03_02:04:18,1706925858458904,2299,525772190,1,-3.47564793816e-05,-1.06929548875e-05,5.73697580176e-05,-0.0007189955983278,-0.0016113295709709,-0.0006134140587286,2903846782
2024-02-03_02:04:18,1706925858460337,2299,525772200,1,-4.52047436281e-05,-2.64077056883e-05,6.44512888265e-05,-0.0004586226052132,-0.0007766960109758,-0.0011100313108869,2077421432
2024-02-03_02:04:18,1706925858460910,2299,525772210,1,-8.42448965303e-05,-3.75061595205e-05,7.17414467393e-05,-0.0002240876613824,-0.0019647151014994,-0.0026558321982283,3863538073
2024-02-03_02:04:18,1706925858461540,2299,525772220,2,-4.33288271037e-05,-5.16946434612e-05,0.0001126412309974,-0.0021400414731253,-0.0041747708263194,-0.002287625448786,1838108718
2024-02-03_02:04:18,1706925858461995,2299,525772230,1,2.48304779533e-05,-3.3283453154e-05,4.0547068119e-05,-0.002508186999494,-0.0011306883109539,0.0018448575350828,3877488909
2024-02-03_02:04:18,1706925858462415,2299,525772240,1,-1.99461480167e-05,-7.08107473841e-05,5.38143678425e-05,-0.0022176644785449,0.0001485507783644,0.002525014718328,2984601158
2024-02-03_02:04:18,1706925858462881,2299,525772250,1,-0.000104697863184,-7.47361762517e-05,6.2124756321e-05,-0.0002938109086165,-0.0007752127015874,-0.0016040120044991,3583170878
2024-02-03_02:04:18,1706925858463458,2299,525772260,2,9.9388227609e-06,-4.10021078736e-05,4.69038064274e-05,-0.0013573012668198,-0.0047787173467003,-0.0050554116423379,1700481999
2024-02-03_02:04:18,1706925858463913,2299,525772270,1,1.8730146029e-05,-2.39449619036e-05,2.17579046021e-05,-0.0025334556398731,-0.0002324046962231,0.0016128499134154,2876978595
2024-02-03_02:04:18,1706925858464446,2299,525772280,1,-4.29762701908e-05,-2.97955237145e-05,2.49631480428e-05,-0.0016081472033972,-0.0013495773543369,-0.0008511317345791,4039603485
2024-02-03_02:04:18,1706925858464818,2299,525772290,1,-3.86109985282e-05,-2.95969565213e-05,2.2409818439e-05,-0.0016571412373223,-0.0017418032639249,-0.0014983366427229,3784355354
2024-02-03_02:04:18,1706925858465743,2299,525772300,2,6.11330711066e-05,-5.71589137761e-05,5.43722843603e-05,0.0003654468587077,-0.0041561813025518,-0.0037572532071779,696990611
2024-02-03_02:04:18,1706925858466227,2299,525772310,1,0.0001141325504001,2.68001303137e-05,8.1499451267e-06,0.0001770246632225,-0.00196794075577,-0.0009615438900797,2052120194
2024-02-03_02:04:18,1706925858466655,2299,525772320,1,0.0001158859927555,5.56276897832e-05,-2.1479520715e-06,-0.0012492602806122,0.0002223014486229,0.0009360899944054,2714885645
2024-02-03_02:04:18,1706925858467109,2299,525772330,1,2.95550912122e-05,4.7387066921e-05,5.6534784186e-06,-0.0011971686928034,-0.0009572590819636,-0.0009092074272011,4179331043
2024-02-03_02:04:18,1706925858468095,2299,525772340,2,0.0001561428427363,4.43354054876e-05,3.51173582302e-05,-0.0008168375194811,-0.003144715601827,-0.0030217686549238,3650856968
2024-02-03_02:04:18,1706925858468745,2299,525772350,1,0.0001072246983687,3.89643003049e-05,1.86234273425e-05,0.0010220216505241,-0.0014176548184814,-0.0003430210886139,2780113767
2024-02-03_02:04:18,1706925858469127,2299,525772360,1,0.0001243999133369,7.70817121804e-05,8.0595133026e-06,0.0007798365973826,-0.001611293835887,0.0002461123683161,4018332706
2024-02-03_02:04:18,1706925858469675,2299,525772370,1,0.0001339877840579,9.71929567636e-05,4.651969175e-06,-0.0001456439120623,-0.0014316516740369,0.0006993935789502,335376805
2024-02-03_02:04:18,1706925858470340,2299,525772380,2,0.0002605602954948,0.0001841832642152,2.40257050744e-05,-0.0006167145316582,-0.0022127832685272,0.001394367574861,2014869757
2024-02-03_02:04:18,1706925858470901,2299,525772390,1,0.0001354695151145,7.98748312091e-05,2.44883266684e-05,0.0003956509041844,-0.0010446068784403,-0.0001470048565561,787623109
2024-02-03_02:04:18,1706925858471893,2299,525772400,1,0.0001425916756995,8.62656804418e-05,2.33744747534e-05,0.0012633731989844,-0.0009111442471877,8.70329332593e-05,780751306
2024-02-03_02:04:18,1706925858472543,2299,525772410,1,0.00012106148297,0.0001180902207966,1.2016302081e-05,0.000983789199755,-0.0006859205612652,0.0008720183845987,1794709293
2024-02-03_02:04:18,1706925858473285,2299,525772420,2,0.0002624499665688,0.0002516180015458,3.0274959331e-05,0.0017914994069898,-0.0029235587716948,0.0007336113222066,888659968
2024-02-03_02:04:18,1706925858473679,2299,525772430,1,0.0001461768192697,0.0001308042209407,2.40416272921e-05,0.0005750796577502,-0.0009637197742503,0.0003494387004296,1620706869
2024-02-03_02:04:18,1706925858474092,2299,525772440,1,0.0001271521361502,0.0001325918737001,3.36845202394e-05,0.001216690613605,-0.0009375976028493,2.53714576628e-05,2317648107
2024-02-03_02:04:18,1706925858474637,2299,525772450,1,0.0001405469783332,0.0001405947830476,3.48368498508e-05,0.0017054312673839,-0.001456354534628,0.0006347937000403,847861005
2024-02-03_02:04:18,1706925858475306,2299,525772460,2,0.0003084001669686,0.0003171601470142,6.44799181991e-05,0.0030482752121593,-0.0019835774510934,0.0023802382351724,777147478
2024-02-03_02:04:18,1706925858475823,2299,525772470,1,0.000134033710204,0.0001573029890001,3.00608875007e-05,0.0008987236698696,-0.0001724246019757,-0.0002039981551144,3936791684
2024-02-03_02:04:18,1706925858476748,2299,525772480,1,0.0001026087138468,0.0001489947217937,3.85172721349e-05,0.0005462042047976,-3.13217763665e-05,-0.0013309532056323,3068090090
2024-02-03_02:04:18,1706925858477049,2299,525772490,1,0.000118570891694,0.0001370838093875,4.73516183093e-05,0.0014596965309336,-4.21695660735e-05,-0.001074940956906,1031580322
2024-02-03_02:04:18,1706925858478035,2299,525772500,2,0.0002831362522783,0.000293002020061,9.12184250059e-05,0.0031784082396519,0.0005724203809339,0.0022963416004391,2072259998
2024-02-03_02:04:18,1706925858478443,2299,525772510,1,0.0001025456288636,0.0001591764293657,4.5478297801e-05,0.0013246602179125,0.0004968698033456,0.0004838831925637,4084518411
2024-02-03_02:04:18,1706925858478813,2299,525772520,1,9.52843685082e-05,0.0001684701371987,4.68943741315e-05,0.0010389816976838,0.000757814474654,-0.0003341928314272,1627564886
2024-02-03_02:04:18,1706925858479359,2299,525772530,1,9.8699771885e-05,0.0001678411082799,5.11797899794e-05,-6.6339225919e-05,-0.0002733050607143,-0.0012232445403538,1491054519
2024-02-03_02:04:18,1706925858480037,2299,525772540,2,0.0001900417653791,0.0002809496480703,0.0001252987193805,-0.0008293085741418,-0.0011134714567956,6.48009709642e-05,2128513834
2024-02-03_02:04:18,1706925858480519,2299,525772550,1,5.06108488632e-05,0.0001372019750557,5.63197325466e-05,0.0004983346833852,-0.0010550792004388,0.0003642496382834,1469154609
2024-02-03_02:04:18,1706925858481051,2299,525772560,1,5.67159445078e-05,0.0001537418543998,4.19568564093e-05,0.0002299081385671,-0.0019226464548943,-0.0004226043836708,2524707794
2024-02-03_02:04:18,1706925858481446,2299,525772570,1,6.73613651758e-05,0.0001507394265157,3.77060124974e-05,-0.0007950544613037,-0.001816546356475,-0.0005171351577961,330802721
2024-02-03_02:04:18,1706925858481994,2299,525772580,2,0.000200591672374,0.0002496747069115,7.06888444565e-05,-0.0031310352742738,-0.0018892217804045,-0.0016295736342357,3864224132
2024-02-03_02:04:18,1706925858482390,2299,525772590,1,0.0001031949839847,8.13372263726e-05,2.91361187383e-05,-0.0018893317455905,2.07711585546e-05,-0.0004282665959423,2988007391
2024-02-03_02:04:18,1706925858483637,2299,525772600,1,7.95275673753e-05,5.99272875628e-05,2.50167781934e-05,-0.0016758964976856,-0.0010256549415136,-0.001169361315954,3720780928
2024-02-03_02:04:18,1706925858484554,2299,525772610,1,0.0001087907165562,4.1170720907e-05,2.28318263067e-05,-0.0015372315427834,4.75616711458e-05,-0.0002292983107618,2551458905
2024-02-03_02:04:18,1706925858485449,2299,525772620,2,0.000209605499725,6.65505283829e-05,3.87814110443e-05,-0.0028902247543247,-0.001609283807956,-0.0028117927618049,3224752861
2024-02-03_02:04:18,1706925858485900,2299,525772630,1,0.0001426290535622,3.55561591041e-05,1.01259963391e-05,-0.001232855629702,-0.0012872836534798,3.10445891683e-05,4002384275
2024-02-03_02:04:18,1706925858486336,2299,525772640,1,0.0001254521435908,5.10394239145e-05,1.9332523047e-06,-0.0012619313513747,-0.000215858072155,0.0017953559060753,1054900732
2024-02-03_02:04:18,1706925858486730,2299,525772650,1,0.0001173719159296,6.11024142132e-05,-4.9922177096e-06,-0.0016393948947333,0.0002904258649704,0.0019092039157144,3908718921
2024-02-03_02:04:18,1706925858487308,2299,525772660,2,0.0001924574740603,9.00548679191e-05,1.37744175374e-05,-0.0017785453626458,-0.0012471460768486,0.0002069772232953,2682139870
2024-02-03_02:04:18,1706925858487690,2299,525772670,1,0.0001131637853144,5.85523481662e-05,4.1170978262e-06,0.0002484332391639,-0.0006233864571954,0.0006772146424232,341543568
2024-02-03_02:04:18,1706925858488133,2299,525772680,1,9.43319380517e-05,9.10157919025e-05,-2.8124085479e-06,-0.0003798207516374,-0.0002181877404992,0.0006649227441233,2651137037
2024-02-03_02:04:18,1706925858488646,2299,525772690,1,7.37313325729e-05,8.79288733859e-05,4.759701965e-07,-0.0004316021545573,-0.000531272188545,0.0003797572140884,1968166453
2024-02-03_02:04:18,1706925858489836,2299,525772700,2,0.0001558796428608,0.0001247049218884,2.0055690185e-05,-0.0008432524866351,-0.0018188829704511,0.0014156092259135,99148116
2024-02-03_02:04:18,1706925858490363,2299,525772710,1,0.0001103309939439,4.19047768704e-05,9.0800259077e-06,0.0003688250695333,-0.0004867622275264,0.00160772740075,3844662706
2024-02-03_02:04:18,1706925858490867,2299,525772720,1,9.59069761648e-05,4.70520850297e-05,1.54244838763e-05,0.0006633122235332,-0.0008249435674944,0.0011784413733012,2447313171
2024-02-03_02:04:18,1706925858491645,2299,525772730,1,0.000101277346888,4.92294482499e-05,1.86139633253e-05,0.0006946856001663,-0.0008026645265181,0.0017833583482433,540280203
2024-02-03_02:04:18,1706925858492643,2299,525772740,2,0.0001874882474883,0.000123667049892,4.46285589637e-05,-7.14340420511e-05,-0.0017839510372037,0.0058255495527057,3568746208
2024-02-03_02:04:18,1706925858493169,2299,525772750,1,5.86461352099e-05,6.03596455121e-05,2.57422079267e-05,-9.16990211759e-05,0.0004768486383486,0.0035521668285863,388929835
2024-02-03_02:04:18,1706925858493685,2299,525772760,1,6.0878675884e-06,6.86953303043e-05,2.23597554492e-05,9.21009537142e-05,-0.0004059784375586,0.0031492960575436,1000833566
2024-02-03_02:04:18,1706925858494062,2299,525772770,1,-1.29811655136e-05,9.33456398837e-05,2.379569944e-05,0.0002104694900433,-0.0013446086219727,0.001593214427498,3420706399
2024-02-03_02:04:18,1706925858494742,2299,525772780,2,5.45737578042e-05,0.0002128762527443,5.96456169347e-05,0.0007090249324126,-0.001454756791468,0.006335366287122,3347685525
2024-02-03_02:04:18,1706925858495234,2299,525772790,1,-4.7622596976e-06,0.0001415548274329,2.683235862e-05,0.0006880456691188,2.37639634385e-05,0.0027805147382263,977929291
2024-02-03_02:04:18,1706925858496084,2299,525772800,1,-2.28447251136e-05,0.0001654829988808,1.5618025213e-05,0.0008262211101722,-0.0006982143735084,0.0014005098010057,201879588
2024-02-03_02:04:18,1706925858496485,2299,525772810,1,-2.83497984903e-05,0.0001751880404072,1.42239724981e-05,-6.8506231061e-05,-0.000254523895855,0.0019643475458202,57712980
2024-02-03_02:04:18,1706925858497037,2299,525772820,2,-5.46461650103e-05,0.0003089708633339,5.98409967996e-05,-0.0006520226825927,-0.0010229548475519,0.0046847244060924,2611718376
2024-02-03_02:04:18,1706925858497440,2299,525772830,1,-6.4202588034e-05,0.0001548606947075,2.49340838635e-05,0.0010156034834967,0.0008625210537266,0.003820801745182,525638441
2024-02-03_02:04:18,1706925858497838,2299,525772840,1,-0.0001336889997905,0.0001727118491652,2.02681442035e-05,0.0011403576689914,-0.0004383018816007,0.002207199460323,3692426302
2024-02-03_02:04:18,1706925858498323,2299,525772850,1,-0.0001359634129642,0.0001721690635165,2.16154023035e-05,0.001090361276498,-0.0001388533255996,0.0012840463967741,118460461
2024-02-03_02:04:18,1706925858498933,2299,525772860,2,-0.0002469380592136,0.0003450972436391,2.97584045523e-05,0.0017683178011641,-0.0009527021823729,0.0004239853188606,2549908083
2024-02-03_02:04:18,1706925858499334,2299,525772870,1,-0.0001387211624603,0.0001458094753417,1.90106941402e-05,0.0005393271744656,-0.0001110286355833,0.0016040851381147,2894149585
2024-02-03_02:04:18,1706925858499718,2299,525772880,1,-0.0001640943403979,0.0001328429213748,2.64803686179e-05,0.0011166760281624,-0.0002844411204732,0.001543364470221,1691029661
2024-02-03_02:04:18,1706925858500517,2299,525772890,1,-0.000170932618799,0.0001304311388735,2.59241868904e-05,0.0010433509227213,-0.0011074546722485,0.000578483956743,3861304081
2024-02-03_02:04:18,1706925858503750,2299,525772900,2,-0.0003175441532337,0.0002808558304899,2.79171016847e-05,0.0012444885171931,-0.0014293101330635,-0.0011536604560397,738297323
2024-02-03_02:04:18,1706925858504226,2299,525772910,1,-0.0001407408911609,0.0001327749403506,1.47485752549e-05,-0.0001149007085224,-0.0009648823117084,-0.0002072614007054,2658973360
2024-02-03_02:04:18,1706925858504662,2299,525772920,1,-0.0001615662784598,0.0001157871906553,1.58111480022e-05,0.0001193765209915,-0.0004391792454163,0.0008138470502349,1544972514
2024-02-03_02:04:18,1706925858505263,2299,525772930,1,-0.000167666021089,0.0001095247889434,1.02969736368e-05,0.0003375700696938,-0.0008147941680733,-0.0001045463796793,4252248290
2024-02-03_02:04:18,1706925858506033,2299,525772940,2,-0.0003036678790775,0.0002095529956586,7.856294309e-07,0.0002155383707823,-0.0004078595130962,-0.0039692212937614,1830220252
2024-02-03_02:04:18,1706925858506476,2299,525772950,1,-0.0001222275525743,0.0001135979095269,-8.6022085976e-06,-0.0002727463554387,-0.0004913877747005,-0.0035269718750831,3453610679
2024-02-03_02:04:18,1706925858506992,2299,525772960,1,-7.64657795937e-05,0.0001064984966448,-5.2738269299e-06,-0.0008308358916009,-0.0009042739421496,-0.0032915007025454,2672081478
2024-02-03_02:04:18,1706925858507641,2299,525772970,1,-6.55133803719e-05,9.35093335381e-05,4.798486865e-07,-0.000887993612379,-0.0004853972015061,-0.0015597162336831,2721921837
2024-02-03_02:04:18,1706925858508513,2299,525772980,2,-0.0001421566345864,0.0002330664385308,-2.25770033675e-05,-0.0005494854226096,-0.0007841430970831,-0.0029380038973888,737796632
2024-02-03_02:04:18,1706925858509276,2299,525772990,1,-7.03866496127e-05,0.0001417842477229,-2.20027714681e-05,-0.0004751573782165,-0.0007294467077504,-0.0024248653444047,1785521770
2024-02-03_02:04:18,1706925858510210,2299,525773000,1,-3.53906161542e-05,0.000145326786357,-2.26843307205e-05,-0.0007539985498213,-0.0007498526034235,-0.001416597854023,2884921964
2024-02-03_02:04:18,1706925858510729,2299,525773010,1,-2.35852169469e-05,0.0001312215716281,-1.95307574151e-05,-0.0009547748865185,-0.000430353146494,-6.87215813361e-05,1471977509
2024-02-03_02:04:18,1706925858511511,2299,525773020,2,-0.0001293901040998,0.0002472155283515,-4.32457425898e-05,-0.0007136642123925,-0.0006646924549651,0.0019526096885106,3607893352
2024-02-03_02:04:18,1706925858512100,2299,525773030,1,-0.0001050316823085,0.0001197538875408,-2.45638729835e-05,0.0002158013097716,-0.000177151421959,7.08714652232e-05,3696934692
2024-02-03_02:04:18,1706925858512636,2299,525773040,1,-6.98613944088e-05,0.0001184649536123,-2.3218633201e-05,0.0002567223014427,-0.001275426869688,-0.0005974098835734,3781247283
2024-02-03_02:04:18,1706925858513158,2299,525773050,1,-4.92432173904e-05,0.0001270566441732,-2.39702209685e-05,0.0005059427143432,-0.0006550942839965,-0.000257575631504,1844488274
